  31 09 03.55501,,  -97 24 43.8986,5,      181.5,0        Latitude,        Longitude,        H-Ell,      CorrTime,        Heading,          Pitch,           Roll,     VEast,    VNorth,       VUp
  31 09 03.55501,,  -97 24 43.8986,5,      181.5,01,   31 09 03.55,501,  -97 24 43.8,9865,      18,1.501, 1266446,258.00,  32.653,3975953,   3.29,49484995,   0.9,728594178,,     0.008,,     0.00
  31 09 03.55499,,  -97 24 43.8986,3,      181.5,00,   31 09 03.55,499,  -97 24 43.8,9863,      18,1.500, 1266446,259.00,  32.608,3172759,   3.34,99352591,   0.9,200384387,,     0.013,,     0.00
  31 09 03.55498,,  -97 24 43.8986,5,      181.5,00,   31 09 03.55,498,  -97 24 43.8,9865,      18,1.500, 1266446,260.00,  32.620,8077559,   3.35,30922566,   0.9,891944446,,     0.001,,     0.01
  31 09 03.55494,,  -97 24 43.8986,7,      181.4,98,   31 09 03.55,494,  -97 24 43.8,9867,      18,1.498, 1266446,261.00,  32.667,4694387,   3.41,06401375,   1.1,151706750,,    -0.008,,     0.01
  31 09 03.55492,,  -97 24 43.8986,4,      181.4,98,   31 09 03.55,492,  -97 24 43.8,9864,      18,1.498, 1266446,262.00,  32.613,4223299,   3.40,80962049,   1.0,005390089,,    -0.012,,     0.00
  31 09 03.55498,,  -97 24 43.8986,4,      181.4,99,   31 09 03.55,498,  -97 24 43.8,9864,      18,1.499, 1266446,263.00,  32.649,2379217,   3.39,39613361,   1.0,040054036,,    -0.013,,    -0.00
  31 09 03.55497,,  -97 24 43.8987,1,      181.5,00,   31 09 03.55,497,  -97 24 43.8,9871,      18,1.500, 1266446,264.00,  32.671,7494334,   3.36,84532550,   1.1,040151867,,     0.005,,    -0.00
  31 09 03.55495,,  -97 24 43.8987,4,      181.5,00,   31 09 03.55,495,  -97 24 43.8,9874,      18,1.500, 1266446,265.00,  32.674,4136872,   3.40,23494382,   0.9,919904786,,    -0.008,,    -0.01
  31 09 03.55488,,  -97 24 43.8987,0,      181.5,00,   31 09 03.55,488,  -97 24 43.8,9870,      18,1.500, 1266446,266.00,  32.592,6411507,   3.41,81344255,   0.8,892534164,,    -0.002,,    -0.02
  31 09 03.55488,,  -97 24 43.8986,9,      181.5,05,   31 09 03.55,488,  -97 24 43.8,9869,      18,1.505, 1266446,267.00,  32.604,2091685,   3.28,54431297,   0.9,187722020,,    -0.005,,    -0.00
  31 09 03.55488,,  -97 24 43.8986,2,      181.5,06,   31 09 03.55,488,  -97 24 43.8,9862,      18,1.506, 1266446,268.00,  32.565,2652272,   3.27,55710669,   0.8,438235928,,     0.004,,     0.01
  31 09 03.55493,,  -97 24 43.8986,1,      181.5,07,   31 09 03.55,493,  -97 24 43.8,9861,      18,1.507, 1266446,269.00,  32.649,8567161,   3.26,98472185,   1.0,764215393,,     0.010,,     0.02
  31 09 03.55487,,  -97 24 43.8986,1,      181.5,04,   31 09 03.55,487,  -97 24 43.8,9861,      18,1.504, 1266446,270.00,  32.631,5908216,   3.36,12970122,   1.0,713737811,,     0.001,,     0.00
  31 09 03.55486,,  -97 24 43.8986,3,      181.5,05,   31 09 03.55,486,  -97 24 43.8,9863,      18,1.505, 1266446,271.00,  32.592,4635337,   3.34,62167630,   0.9,034627697,,    -0.011,,    -0.00
  31 09 03.55491,,  -97 24 43.8985,9,      181.5,06,   31 09 03.55,491,  -97 24 43.8,9859,      18,1.506, 1266446,272.00,  32.618,3612261,   3.30,99141571,   0.9,648838453,,    -0.004,,    -0.00
  31 09 03.55490,,  -97 24 43.8986,0,      181.5,04,   31 09 03.55,490,  -97 24 43.8,9860,      18,1.504, 1266446,273.00,  32.635,0113796,   3.40,50480694,   1.0,816698327,,    -0.013,,     0.00
  31 09 03.55492,,  -97 24 43.8985,9,      181.5,04,   31 09 03.55,492,  -97 24 43.8,9859,      18,1.504, 1266446,274.00,  32.616,7569443,   3.38,34017239,   0.9,844847315,,    -0.007,,     0.00
  31 09 03.55494,,  -97 24 43.8985,8,      181.5,04,   31 09 03.55,494,  -97 24 43.8,9858,      18,1.504, 1266446,275.00,  32.588,9570320,   3.37,78726812,   0.9,577161433,,     0.006,,     0.01
  31 09 03.55498,,  -97 24 43.8986,4,      181.5,05,   31 09 03.55,498,  -97 24 43.8,9864,      18,1.505, 1266446,276.00,  32.664,9140469,   3.38,99449019,   1.0,005103610,,     0.021,,     0.01
  31 09 03.55500,,  -97 24 43.8986,0,      181.5,03,   31 09 03.55,500,  -97 24 43.8,9860,      18,1.503, 1266446,277.00,  32.642,4025352,   3.42,58006008,   1.0,200539514,,    -0.001,,     0.02
  31 09 03.55500,,  -97 24 43.8986,1,      181.5,03,   31 09 03.55,500,  -97 24 43.8,9861,      18,1.503, 1266446,278.00,  32.649,3811611,   3.45,95019783,   1.0,191945147,,     0.002,,     0.01
  31 09 03.55504,,  -97 24 43.8985,6,      181.5,03,   31 09 03.55,504,  -97 24 43.8,9856,      18,1.503, 1266446,279.00,  32.605,0514165,   3.41,98303805,   0.9,622711578,,     0.004,,     0.00
  31 09 03.55505,,  -97 24 43.8986,3,      181.5,02,   31 09 03.55,505,  -97 24 43.8,9863,      18,1.502, 1266446,280.00,  32.644,4651832,   3.46,21261250,   0.9,508922160,,     0.003,,    -0.00
  31 09 03.55505,,  -97 24 43.8986,5,      181.5,04,   31 09 03.55,505,  -97 24 43.8,9865,      18,1.504, 1266446,281.00,  32.674,0412646,   3.40,54720582,   0.9,877505909,,    -0.002,,    -0.00
  31 09 03.55512,,  -97 24 43.8986,3,      181.5,04,   31 09 03.55,512,  -97 24 43.8,9863,      18,1.504, 1266446,282.00,  32.669,1424755,   3.35,58882906,   0.9,682757555,,     0.001,,    -0.00
  31 09 03.55511,,  -97 24 43.8986,3,      181.5,03,   31 09 03.55,511,  -97 24 43.8,9863,      18,1.503, 1266446,283.00,  32.655,3399222,   3.39,20361979,   0.9,757413955,,    -0.011,,    -0.01
  31 09 03.55510,,  -97 24 43.8986,3,      181.5,05,   31 09 03.55,510,  -97 24 43.8,9863,      18,1.505, 1266446,284.00,  32.592,5895845,   3.37,71679431,   0.9,168814412,,     0.002,,     0.00
  31 09 03.55510,,  -97 24 43.8987,1,      181.5,03,   31 09 03.55,510,  -97 24 43.8,9871,      18,1.503, 1266446,285.00,  32.656,8468012,   3.42,97425504,   0.9,415644631,,     0.010,,    -0.00
  31 09 03.55508,,  -97 24 43.8987,4,      181.5,05,   31 09 03.55,508,  -97 24 43.8,9874,      18,1.505, 1266446,286.00,  32.667,1428528,   3.36,47634068,   0.9,408711841,,     0.014,,     0.00
  31 09 03.55511,,  -97 24 43.8987,6,      181.5,06,   31 09 03.55,511,  -97 24 43.8,9876,      18,1.506, 1266446,287.00,  32.665,8766160,   3.35,88332937,   0.9,353020343,,     0.013,,     0.01
  31 09 03.55505,,  -97 24 43.8987,9,      181.5,05,   31 09 03.55,505,  -97 24 43.8,9879,      18,1.505, 1266446,288.00,  32.635,4239092,   3.41,61863690,   0.9,290052282,,     0.009,,     0.00
  31 09 03.55515,,  -97 24 43.8987,2,      181.5,08,   31 09 03.55,515,  -97 24 43.8,9872,      18,1.508, 1266446,289.00,  32.635,4983937,   3.28,95397779,   0.9,846337005,,    -0.004,,     0.01
  31 09 03.55510,,  -97 24 43.8987,9,      181.5,07,   31 09 03.55,510,  -97 24 43.8,9879,      18,1.507, 1266446,290.00,  32.670,0019122,   3.32,35906597,   1.1,081232941,,    -0.000,,    -0.00
  31 09 03.55510,,  -97 24 43.8988,0,      181.5,09,   31 09 03.55,510,  -97 24 43.8,9880,      18,1.509, 1266446,291.00,  32.670,0420192,   3.26,19862376,   0.9,543872585,,    -0.004,,     0.00
  31 09 03.55517,,  -97 24 43.8987,6,      181.5,11,   31 09 03.55,517,  -97 24 43.8,9876,      18,1.511, 1266446,292.00,  32.677,3415015,   3.19,23145697,   0.9,146640946,,     0.008,,     0.02
  31 09 03.55497,,  -97 24 43.8988,8,      181.5,06,   31 09 03.55,497,  -97 24 43.8,9888,      18,1.506, 1266446,293.00,  32.617,1694739,   3.41,54243351,   0.7,929965068,,     0.015,,     0.02
  31 09 03.55498,,  -97 24 43.8988,9,      181.5,09,   31 09 03.55,498,  -97 24 43.8,9889,      18,1.509, 1266446,294.00,  32.614,4135469,   3.36,38753223,   0.8,742075447,,     0.003,,     0.01
  31 09 03.55494,,  -97 24 43.8989,2,      181.5,05,   31 09 03.55,494,  -97 24 43.8,9892,      18,1.505, 1266446,295.00,  32.631,3387201,   3.44,79282308,   0.9,864041401,,     0.003,,    -0.00
  31 09 03.55498,,  -97 24 43.8989,1,      181.5,07,   31 09 03.55,498,  -97 24 43.8,9891,      18,1.507, 1266446,296.00,  32.697,1830300,   3.40,34036805,   1.1,703064036,,    -0.007,,    -0.00
  31 09 03.55501,,  -97 24 43.8989,4,      181.5,09,   31 09 03.55,501,  -97 24 43.8,9894,      18,1.509, 1266446,297.00,  32.660,3418437,   3.38,77103665,   1.0,030657528,,     0.013,,     0.01
  31 09 03.55504,,  -97 24 43.8989,2,      181.5,10,   31 09 03.55,504,  -97 24 43.8,9892,      18,1.510, 1266446,298.00,  32.608,3230055,   3.32,58137359,   0.9,669923300,,     0.006,,    -0.00
  31 09 03.55507,,  -97 24 43.8989,1,      181.5,11,   31 09 03.55,507,  -97 24 43.8,9891,      18,1.511, 1266446,299.00,  32.668,5924360,   3.30,26261340,   1.0,087036575,,    -0.012,,    -0.01
  31 09 03.55499,,  -97 24 43.8989,8,      181.5,09,   31 09 03.55,499,  -97 24 43.8,9898,      18,1.509, 1266446,300.00,  32.696,0485735,   3.44,29434980,   1.0,199622782,,    -0.016,,    -0.00
  31 09 03.55501,,  -97 24 43.8990,1,      181.5,11,   31 09 03.55,501,  -97 24 43.8,9901,      18,1.511, 1266446,301.00,  32.669,3487403,   3.38,38887380,   0.9,254242420,,    -0.008,,    -0.00
  31 09 03.55500,,  -97 24 43.8989,0,      181.5,11,   31 09 03.55,500,  -97 24 43.8,9890,      18,1.511, 1266446,302.00,  32.630,4563651,   3.40,45725144,   0.9,811615763,,    -0.003,,    -0.01
  31 09 03.55501,,  -97 24 43.8989,0,      181.5,08,   31 09 03.55,501,  -97 24 43.8,9890,      18,1.508, 1266446,303.00,  32.589,7878208,   3.48,85566681,   0.9,372386317,,     0.002,,     0.01
  31 09 03.55498,,  -97 24 43.8989,4,      181.5,10,   31 09 03.55,498,  -97 24 43.8,9894,      18,1.510, 1266446,304.00,  32.625,7237338,   3.42,15091469,   0.9,258138533,,     0.001,,     0.00
  31 09 03.55503,,  -97 24 43.8989,4,      181.5,09,   31 09 03.55,503,  -97 24 43.8,9894,      18,1.509, 1266446,305.00,  32.638,7699827,   3.43,75519651,   0.8,940433435,,    -0.005,,    -0.00
  31 09 03.55500,,  -97 24 43.8989,7,      181.5,10,   31 09 03.55,500,  -97 24 43.8,9897,      18,1.510, 1266446,306.00,  32.659,3334380,   3.41,43127970,   0.9,186862583,,    -0.000,,     0.00
  31 09 03.55501,,  -97 24 43.8989,9,      181.5,09,   31 09 03.55,501,  -97 24 43.8,9899,      18,1.509, 1266446,307.00,  32.653,4720798,   3.46,92365312,   0.8,918947518,,    -0.000,,     0.01
  31 09 03.55500,,  -97 24 43.8989,9,      181.5,10,   31 09 03.55,500,  -97 24 43.8,9899,      18,1.510, 1266446,308.00,  32.663,2467398,   3.45,47808060,   0.9,588620589,,    -0.008,,    -0.00
  31 09 03.55507,,  -97 24 43.8989,6,      181.5,13,   31 09 03.55,507,  -97 24 43.8,9896,      18,1.513, 1266446,309.00,  32.679,3697721,   3.32,49600288,   0.9,465377367,,    -0.009,,     0.00
  31 09 03.55503,,  -97 24 43.8989,6,      181.5,09,   31 09 03.55,503,  -97 24 43.8,9896,      18,1.509, 1266446,310.00,  32.626,8008944,   3.45,65684344,   0.9,119597338,,    -0.009,,    -0.00
  31 09 03.55501,,  -97 24 43.8989,8,      181.5,09,   31 09 03.55,501,  -97 24 43.8,9898,      18,1.509, 1266446,311.00,  32.644,9693861,   3.43,26875535,   0.9,385507050,,     0.005,,    -0.01
  31 09 03.55503,,  -97 24 43.8990,4,      181.5,10,   31 09 03.55,503,  -97 24 43.8,9904,      18,1.510, 1266446,312.00,  32.696,2548383,   3.39,78689082,   0.9,925347885,,     0.010,,    -0.00
  31 09 03.55507,,  -97 24 43.8989,7,      181.5,07,   31 09 03.55,507,  -97 24 43.8,9897,      18,1.507, 1266446,313.00,  32.649,9942260,   3.43,31115422,   0.9,685393160,,     0.000,,     0.01
  31 09 03.55508,,  -97 24 43.8989,8,      181.5,08,   31 09 03.55,508,  -97 24 43.8,9898,      18,1.508, 1266446,314.00,  32.672,5744927,   3.38,99620907,   0.9,272691661,,    -0.008,,    -0.00
  31 09 03.55506,,  -97 24 43.8989,9,      181.5,09,   31 09 03.55,506,  -97 24 43.8,9899,      18,1.509, 1266446,315.00,  32.650,1833020,   3.34,12606781,   0.9,146698241,,     0.012,,     0.01
  31 09 03.55509,,  -97 24 43.8989,3,      181.5,10,   31 09 03.55,509,  -97 24 43.8,9893,      18,1.510, 1266446,316.00,  32.658,6172408,   3.26,23300122,   0.9,625003409,,     0.019,,     0.02
  31 09 03.55504,,  -97 24 43.8989,3,      181.5,07,   31 09 03.55,504,  -97 24 43.8,9893,      18,1.507, 1266446,317.00,  32.637,4636390,   3.36,98971087,   0.9,577619799,,     0.013,,     0.00
  31 09 03.55498,,  -97 24 43.8989,5,      181.5,06,   31 09 03.55,498,  -97 24 43.8,9895,      18,1.506, 1266446,318.00,  32.553,6742910,   3.39,41446826,   0.9,006380877,,     0.001,,     0.01
  31 09 03.55503,,  -97 24 43.8988,9,      181.5,06,   31 09 03.55,503,  -97 24 43.8,9889,      18,1.506, 1266446,319.00,  32.581,6346314,   3.36,98684608,   0.9,776493450,,     0.007,,     0.00
  31 09 03.55498,,  -97 24 43.8988,9,      181.5,03,   31 09 03.55,498,  -97 24 43.8,9889,      18,1.503, 1266446,320.00,  32.596,5200749,   3.43,23323196,   0.9,344655160,,     0.006,,    -0.00
  31 09 03.55498,,  -97 24 43.8989,3,      181.5,03,   31 09 03.55,498,  -97 24 43.8,9893,      18,1.503, 1266446,321.00,  32.650,4354035,   3.46,43205533,   1.0,007223554,,     0.015,,     0.00
  31 09 03.55510,,  -97 24 43.8990,0,      181.5,04,   31 09 03.55,510,  -97 24 43.8,9900,      18,1.504, 1266446,322.00,  32.761,7840214,   3.39,90663900,   0.9,660412201,,    -0.006,,    -0.01
  31 09 03.55510,,  -97 24 43.8989,7,      181.5,06,   31 09 03.55,510,  -97 24 43.8,9897,      18,1.506, 1266446,323.00,  32.701,5203205,   3.36,87053565,   0.8,937855125,,    -0.004,,    -0.02
  31 09 03.55505,,  -97 24 43.8988,9,      181.5,09,   31 09 03.55,505,  -97 24 43.8,9889,      18,1.509, 1266446,324.00,  32.626,8925677,   3.30,10103930,   0.9,171507314,,     0.008,,    -0.00
  31 09 03.55508,,  -97 24 43.8988,9,      181.5,08,   31 09 03.55,508,  -97 24 43.8,9889,      18,1.508, 1266446,325.00,  32.650,0916288,   3.31,79069184,   0.9,215854247,,     0.009,,     0.01
  31 09 03.55503,,  -97 24 43.8988,1,      181.5,06,   31 09 03.55,503,  -97 24 43.8,9881,      18,1.506, 1266446,326.00,  32.560,3950859,   3.40,29281256,   0.8,792724916,,     0.019,,     0.02
  31 09 03.55501,,  -97 24 43.8988,2,      181.5,06,   31 09 03.55,501,  -97 24 43.8,9882,      18,1.506, 1266446,327.00,  32.565,9470470,   3.43,68586862,   0.9,369693415,,     0.015,,     0.01
  31 09 03.55502,,  -97 24 43.8988,7,      181.5,06,   31 09 03.55,502,  -97 24 43.8,9887,      18,1.506, 1266446,328.00,  32.616,6366231,   3.48,68836313,   0.9,995191440,,     0.004,,     0.01
  31 09 03.55506,,  -97 24 43.8988,5,      181.5,07,   31 09 03.55,506,  -97 24 43.8,9885,      18,1.507, 1266446,329.00,  32.602,5991571,   3.47,77506840,   0.9,465778438,,     0.001,,    -0.00
  31 09 03.55509,,  -97 24 43.8989,1,      181.5,09,   31 09 03.55,509,  -97 24 43.8,9891,      18,1.509, 1266446,330.00,  32.630,3818806,   3.43,83541060,   0.9,636290677,,    -0.017,,     0.00
  31 09 03.55515,,  -97 24 43.8988,8,      181.5,12,   31 09 03.55,515,  -97 24 43.8,9888,      18,1.512, 1266446,331.00,  32.608,7985605,   3.36,59379703,   0.9,167611201,,    -0.005,,    -0.00
  31 09 03.55526,,  -97 24 43.8988,5,      181.5,14,   31 09 03.55,526,  -97 24 43.8,9885,      18,1.514, 1266446,332.00,  32.619,9655079,   3.32,19348117,   0.9,641791072,,     0.004,,    -0.00
  31 09 03.55525,,  -97 24 43.8989,0,      181.5,14,   31 09 03.55,525,  -97 24 43.8,9890,      18,1.514, 1266446,333.00,  32.659,4079225,   3.33,21735675,   1.0,141983227,,     0.013,,    -0.01
  31 09 03.55522,,  -97 24 43.8989,6,      181.5,14,   31 09 03.55,522,  -97 24 43.8,9896,      18,1.514, 1266446,334.00,  32.648,0289807,   3.38,15797181,   0.9,315606199,,    -0.002,,     0.00
  31 09 03.55524,,  -97 24 43.8989,5,      181.5,16,   31 09 03.55,524,  -97 24 43.8,9895,      18,1.516, 1266446,335.00,  32.598,8520132,   3.34,82679519,   0.8,564057460,,     0.001,,    -0.00
  31 09 03.55526,,  -97 24 43.8989,5,      181.5,15,   31 09 03.55,526,  -97 24 43.8,9895,      18,1.515, 1266446,336.00,  32.590,3607786,   3.36,67401112,   0.8,816388073,,     0.004,,     0.00
  31 09 03.55529,,  -97 24 43.8989,4,      181.5,17,   31 09 03.55,529,  -97 24 43.8,9894,      18,1.517, 1266446,337.00,  32.624,4345787,   3.34,04241597,   0.9,141484326,,     0.015,,     0.01
  31 09 03.55536,,  -97 24 43.8989,2,      181.5,17,   31 09 03.55,536,  -97 24 43.8,9892,      18,1.517, 1266446,338.00,  32.670,4889263,   3.31,79814029,   0.8,542456951,,     0.009,,    -0.00
  31 09 03.55535,,  -97 24 43.8988,7,      181.5,21,   31 09 03.55,535,  -97 24 43.8,9887,      18,1.521, 1266446,339.00,  32.636,1171882,   3.24,44021628,   0.9,076396320,,     0.001,,    -0.00
  31 09 03.55524,,  -97 24 43.8989,4,      181.5,19,   31 09 03.55,524,  -97 24 43.8,9894,      18,1.519, 1266446,340.00,  32.655,0935503,   3.34,01090329,   0.8,983118791,,    -0.011,,     0.00
  31 09 03.55529,,  -97 24 43.8989,0,      181.5,21,   31 09 03.55,529,  -97 24 43.8,9890,      18,1.521, 1266446,341.00,  32.679,5531186,   3.27,58288979,   1.0,130810550,,    -0.011,,     0.00
  31 09 03.55525,,  -97 24 43.8989,3,      181.5,18,   31 09 03.55,525,  -97 24 43.8,9893,      18,1.518, 1266446,342.00,  32.708,5848901,   3.34,06533428,   1.0,152009989,,    -0.005,,     0.01
  31 09 03.55513,,  -97 24 43.8989,5,      181.5,16,   31 09 03.55,513,  -97 24 43.8,9895,      18,1.516, 1266446,343.00,  32.649,6733696,   3.42,92498067,   0.9,369005866,,     0.007,,     0.01
  31 09 03.55514,,  -97 24 43.8988,7,      181.5,13,   31 09 03.55,514,  -97 24 43.8,9887,      18,1.513, 1266446,344.00,  32.666,2662273,   3.49,04073217,   1.0,607282253,,    -0.012,,    -0.00
  31 09 03.55510,,  -97 24 43.8988,4,      181.5,14,   31 09 03.55,510,  -97 24 43.8,9884,      18,1.514, 1266446,345.00,  32.679,9885665,   3.44,97445070,   1.1,016488710,,    -0.011,,    -0.02
  31 09 03.55510,,  -97 24 43.8988,3,      181.5,13,   31 09 03.55,510,  -97 24 43.8,9883,      18,1.513, 1266446,346.00,  32.661,2585762,   3.45,88831838,   1.0,656900398,,    -0.002,,    -0.00
  31 09 03.55507,,  -97 24 43.8988,1,      181.5,15,   31 09 03.55,507,  -97 24 43.8,9881,      18,1.515, 1266446,347.00,  32.590,0972180,   3.42,11309947,   1.0,469944269,,     0.001,,     0.00
  31 09 03.55507,,  -97 24 43.8988,5,      181.5,11,   31 09 03.55,507,  -97 24 43.8,9885,      18,1.511, 1266446,348.00,  32.639,1424053,   3.49,39940375,   1.0,887000248,,     0.016,,     0.01
  31 09 03.55515,,  -97 24 43.8987,6,      181.5,19,   31 09 03.55,515,  -97 24 43.8,9876,      18,1.519, 1266446,349.00,  32.681,2949103,   3.25,16443493,   1.1,662842399,,    -0.009,,     0.01
  31 09 03.55505,,  -97 24 43.8987,7,      181.5,15,   31 09 03.55,505,  -97 24 43.8,9877,      18,1.515, 1266446,350.00,  32.611,0674734,   3.36,27695137,   1.1,441336915,,    -0.006,,    -0.00
  31 09 03.55504,,  -97 24 43.8987,9,      181.5,13,   31 09 03.55,504,  -97 24 43.8,9879,      18,1.513, 1266446,351.00,  32.622,9620772,   3.42,24889047,   1.0,934899520,,    -0.011,,    -0.01
  31 09 03.55498,,  -97 24 43.8988,5,      181.5,13,   31 09 03.55,498,  -97 24 43.8,9885,      18,1.513, 1266446,352.00,  32.666,7761598,   3.42,51875359,   0.9,937666478,,    -0.018,,    -0.01
  31 09 03.55500,,  -97 24 43.8988,2,      181.5,15,   31 09 03.55,500,  -97 24 43.8,9882,      18,1.515, 1266446,353.00,  32.630,9834863,   3.35,19979072,   0.9,194712105,,    -0.006,,    -0.00
  31 09 03.55502,,  -97 24 43.8988,1,      181.5,13,   31 09 03.55,502,  -97 24 43.8,9881,      18,1.513, 1266446,354.00,  32.633,6935767,   3.38,34131831,   0.9,008443526,,    -0.015,,    -0.00
  31 09 03.55503,,  -97 24 43.8988,3,      181.5,14,   31 09 03.55,503,  -97 24 43.8,9883,      18,1.514, 1266446,355.00,  32.650,9109584,   3.33,77197989,   0.8,442361224,,    -0.007,,     0.00
  31 09 03.55498,,  -97 24 43.8988,2,      181.5,10,   31 09 03.55,498,  -97 24 43.8,9882,      18,1.510, 1266446,356.00,  32.634,9655430,   3.44,71948448,   0.9,577276025,,     0.012,,     0.00
  31 09 03.55497,,  -97 24 43.8987,6,      181.5,11,   31 09 03.55,497,  -97 24 43.8,9876,      18,1.511, 1266446,357.00,  32.631,3902863,   3.37,60334867,   1.0,956500029,,     0.002,,     0.01
  31 09 03.55503,,  -97 24 43.8987,3,      181.5,12,   31 09 03.55,503,  -97 24 43.8,9873,      18,1.512, 1266446,358.00,  32.656,8983674,   3.32,74867727,   1.0,606422816,,     0.002,,     0.01
  31 09 03.55495,,  -97 24 43.8987,9,      181.5,07,   31 09 03.55,495,  -97 24 43.8,9879,      18,1.507, 1266446,359.00,  32.633,0289456,   3.48,26208253,   0.9,748475814,,    -0.004,,     0.00
  31 09 03.55491,,  -97 24 43.8988,0,      181.5,05,   31 09 03.55,491,  -97 24 43.8,9880,      18,1.505, 1266446,360.00,  32.639,5434758,   3.54,53138672,   0.9,851207146,,    -0.000,,     0.00
  31 09 03.55491,,  -97 24 43.8988,2,      181.5,05,   31 09 03.55,491,  -97 24 43.8,9882,      18,1.505, 1266446,361.00,  32.627,6603311,   3.54,10854387,   0.9,070724038,,    -0.015,,     0.00
  31 09 03.55490,,  -97 24 43.8988,0,      181.5,06,   31 09 03.55,490,  -97 24 43.8,9880,      18,1.506, 1266446,362.00,  32.604,9368249,   3.49,23897557,   0.9,813964890,,     0.004,,     0.00
  31 09 03.55497,,  -97 24 43.8988,0,      181.5,09,   31 09 03.55,497,  -97 24 43.8,9880,      18,1.509, 1266446,363.00,  32.618,2982007,   3.40,35068129,   0.9,634285325,,     0.004,,     0.01
  31 09 03.55499,,  -97 24 43.8988,1,      181.5,05,   31 09 03.55,499,  -97 24 43.8,9881,      18,1.505, 1266446,364.00,  32.625,0132661,   3.51,02259319,   0.9,832070356,,    -0.002,,     0.00
  31 09 03.55500,,  -97 24 43.8988,7,      181.5,05,   31 09 03.55,500,  -97 24 43.8,9887,      18,1.505, 1266446,365.00,  32.657,0244181,   3.51,33370927,   0.9,421889870,,    -0.007,,    -0.01
  31 09 03.55491,,  -97 24 43.8988,6,      181.5,00,   31 09 03.55,491,  -97 24 43.8,9886,      18,1.500, 1266446,366.00,  32.626,1763704,   3.65,45597300,   1.0,395459756,,    -0.005,,    -0.02
  31 09 03.55492,,  -97 24 43.8988,2,      181.5,02,   31 09 03.55,492,  -97 24 43.8,9882,      18,1.502, 1266446,367.00,  32.621,5067644,   3.57,36523598,   1.0,122731845,,    -0.003,,    -0.02
  31 09 03.55482,,  -97 24 43.8989,2,      181.4,96,   31 09 03.55,482,  -97 24 43.8,9892,      18,1.496, 1266446,368.00,  32.625,9242690,   3.80,58606950,   1.0,159630327,,    -0.012,,    -0.03
  31 09 03.55496,,  -97 24 43.8988,0,      181.5,01,   31 09 03.55,496,  -97 24 43.8,9880,      18,1.501, 1266446,369.00,  32.609,4173549,   3.60,53655738,   0.9,934572506,,    -0.014,,    -0.02
  31 09 03.55509,,  -97 24 43.8987,6,      181.5,08,   31 09 03.55,509,  -97 24 43.8,9876,      18,1.508, 1266446,370.00,  32.670,5347629,   3.32,14879046,   1.0,486101679,,    -0.002,,    -0.00
  31 09 03.55504,,  -97 24 43.8988,3,      181.5,08,   31 09 03.55,504,  -97 24 43.8,9883,      18,1.508, 1266446,371.00,  32.672,9411856,   3.30,69290470,   1.0,547923825,,    -0.011,,    -0.00
  31 09 03.55500,,  -97 24 43.8988,7,      181.5,08,   31 09 03.55,500,  -97 24 43.8,9887,      18,1.508, 1266446,372.00,  32.674,3793097,   3.33,87110159,   1.0,118205479,,    -0.005,,    -0.00
  31 09 03.55492,,  -97 24 43.8988,6,      181.5,07,   31 09 03.55,492,  -97 24 43.8,9886,      18,1.507, 1266446,373.00,  32.625,6034126,   3.36,65166577,   0.9,717650684,,     0.020,,     0.02
  31 09 03.55494,,  -97 24 43.8988,6,      181.5,05,   31 09 03.55,494,  -97 24 43.8,9886,      18,1.505, 1266446,374.00,  32.640,4773970,   3.43,26703647,   0.9,730828714,,     0.016,,     0.01
  31 09 03.55495,,  -97 24 43.8988,4,      181.5,04,   31 09 03.55,495,  -97 24 43.8,9884,      18,1.504, 1266446,375.00,  32.649,0774935,   3.46,37304068,   1.0,414940321,,     0.006,,     0.00
  31 09 03.55490,,  -97 24 43.8988,4,      181.5,04,   31 09 03.55,490,  -97 24 43.8,9884,      18,1.504, 1266446,376.00,  32.595,6720974,   3.48,25348816,   1.0,149374383,,    -0.006,,    -0.02
  31 09 03.55500,,  -97 24 43.8987,5,      181.5,06,   31 09 03.55,500,  -97 24 43.8,9875,      18,1.506, 1266446,377.00,  32.613,0441777,   3.40,39537200,   1.0,014442822,,    -0.005,,    -0.01
  31 09 03.55502,,  -97 24 43.8987,7,      181.5,07,   31 09 03.55,502,  -97 24 43.8,9877,      18,1.507, 1266446,378.00,  32.626,1018859,   3.33,75020749,   1.0,251704645,,     0.007,,     0.01
  31 09 03.55503,,  -97 24 43.8987,6,      181.5,04,   31 09 03.55,503,  -97 24 43.8,9876,      18,1.504, 1266446,379.00,  32.629,7458975,   3.44,98877465,   1.0,198018500,,     0.005,,     0.00
  31 09 03.55507,,  -97 24 43.8987,6,      181.5,06,   31 09 03.55,507,  -97 24 43.8,9876,      18,1.506, 1266446,380.00,  32.629,1156439,   3.33,08901420,   0.9,535564697,,     0.006,,    -0.00
  31 09 03.55506,,  -97 24 43.8987,8,      181.5,06,   31 09 03.55,506,  -97 24 43.8,9878,      18,1.506, 1266446,381.00,  32.645,8975777,   3.39,03688907,   0.9,455579789,,     0.003,,     0.01
  31 09 03.55505,,  -97 24 43.8987,8,      181.5,03,   31 09 03.55,505,  -97 24 43.8,9878,      18,1.503, 1266446,382.00,  32.630,6798187,   3.47,62552642,   0.9,346488625,,     0.002,,     0.00
  31 09 03.55511,,  -97 24 43.8986,3,      181.5,06,   31 09 03.55,511,  -97 24 43.8,9863,      18,1.506, 1266446,383.00,  32.556,6536715,   3.41,46966787,   0.9,174257511,,     0.005,,     0.00
  31 09 03.55506,,  -97 24 43.8986,5,      181.5,06,   31 09 03.55,506,  -97 24 43.8,9865,      18,1.506, 1266446,384.00,  32.537,0413262,   3.40,02180352,   0.9,108138182,,    -0.003,,    -0.02
  31 09 03.55499,,  -97 24 43.8986,9,      181.5,07,   31 09 03.55,499,  -97 24 43.8,9869,      18,1.507, 1266446,385.00,  32.566,1132047,   3.39,71469814,   0.9,927868899,,    -0.002,,    -0.00
  31 09 03.55505,,  -97 24 43.8986,8,      181.5,09,   31 09 03.55,505,  -97 24 43.8,9868,      18,1.509, 1266446,386.00,  32.609,5319465,   3.35,92343641,   1.0,995575751,,    -0.000,,     0.02
  31 09 03.55519,,  -97 24 43.8986,2,      181.5,11,   31 09 03.55,519,  -97 24 43.8,9862,      18,1.511, 1266446,387.00,  32.581,5200399,   3.25,98491050,   0.8,687415273,,    -0.003,,     0.00
  31 09 03.55510,,  -97 24 43.8986,7,      181.5,07,   31 09 03.55,510,  -97 24 43.8,9867,      18,1.507, 1266446,388.00,  32.578,3745016,   3.42,06153327,   0.9,791046578,,     0.005,,    -0.00
  31 09 03.55501,,  -97 24 43.8987,4,      181.5,06,   31 09 03.55,501,  -97 24 43.8,9874,      18,1.506, 1266446,389.00,  32.614,7515920,   3.49,04302400,   1.0,369733951,,     0.002,,    -0.00
  31 09 03.55501,,  -97 24 43.8986,8,      181.5,08,   31 09 03.55,501,  -97 24 43.8,9868,      18,1.508, 1266446,390.00,  32.546,6211806,   3.47,99966786,   0.9,157355256,,    -0.003,,    -0.00
  31 09 03.55513,,  -97 24 43.8986,8,      181.5,06,   31 09 03.55,513,  -97 24 43.8,9868,      18,1.506, 1266446,391.00,  32.603,1033600,   3.49,90819028,   0.9,669751413,,    -0.013,,     0.00
  31 09 03.55511,,  -97 24 43.8987,6,      181.5,07,   31 09 03.55,511,  -97 24 43.8,9876,      18,1.507, 1266446,392.00,  32.671,6119236,   3.50,93493064,   1.0,578118701,,    -0.006,,    -0.01
  31 09 03.55516,,  -97 24 43.8986,5,      181.5,11,   31 09 03.55,516,  -97 24 43.8,9865,      18,1.511, 1266446,393.00,  32.597,2018947,   3.39,20247387,   1.0,364118965,,     0.002,,    -0.02
  31 09 03.55509,,  -97 24 43.8986,7,      181.5,09,   31 09 03.55,509,  -97 24 43.8,9867,      18,1.509, 1266446,394.00,  32.553,9149333,   3.45,79779105,   0.9,378516965,,     0.003,,    -0.00
  31 09 03.55512,,  -97 24 43.8986,5,      181.5,12,   31 09 03.55,512,  -97 24 43.8,9865,      18,1.512, 1266446,395.00,  32.583,1243217,   3.42,13200708,   0.8,953210394,,     0.004,,    -0.00
  31 09 03.55513,,  -97 24 43.8986,0,      181.5,14,   31 09 03.55,513,  -97 24 43.8,9860,      18,1.514, 1266446,396.00,  32.585,1697810,   3.35,97500261,   0.9,845534864,,     0.013,,     0.01
  31 09 03.55517,,  -97 24 43.8986,1,      181.5,15,   31 09 03.55,517,  -97 24 43.8,9861,      18,1.515, 1266446,397.00,  32.582,4081244,   3.37,84513686,   0.9,644713157,,     0.000,,     0.00
  31 09 03.55515,,  -97 24 43.8985,1,      181.5,16,   31 09 03.55,515,  -97 24 43.8,9851,      18,1.516, 1266446,398.00,  32.467,1118273,   3.36,26205447,   0.9,105903646,,     0.001,,     0.00
  31 09 03.55523,,  -97 24 43.8985,4,      181.5,16,   31 09 03.55,523,  -97 24 43.8,9854,      18,1.516, 1266446,399.00,  32.560,3148719,   3.37,78039263,   0.9,502218553,,    -0.011,,    -0.00
  31 09 03.55515,,  -97 24 43.8987,1,      181.5,14,   31 09 03.55,515,  -97 24 43.8,9871,      18,1.514, 1266446,400.00,  32.694,5302354,   3.49,92480605,   0.9,988946200,,    -0.000,,    -0.01
  31 09 03.55512,,  -97 24 43.8985,7,      181.5,18,   31 09 03.55,512,  -97 24 43.8,9857,      18,1.518, 1266446,401.00,  32.532,6639287,   3.39,04662935,   0.9,520495907,,    -0.013,,    -0.01
  31 09 03.55517,,  -97 24 43.8985,9,      181.5,19,   31 09 03.55,517,  -97 24 43.8,9859,      18,1.519, 1266446,402.00,  32.578,2026142,   3.41,02906332,   0.8,863542499,,    -0.007,,    -0.00
  31 09 03.55520,,  -97 24 43.8985,6,      181.5,21,   31 09 03.55,520,  -97 24 43.8,9856,      18,1.521, 1266446,403.00,  32.575,2404224,   3.34,72251687,   0.9,484456862,,    -0.005,,     0.00
  31 09 03.55516,,  -97 24 43.8986,2,      181.5,20,   31 09 03.55,516,  -97 24 43.8,9862,      18,1.520, 1266446,404.00,  32.588,0861362,   3.44,86501576,   0.9,038867584,,    -0.002,,    -0.00
  31 09 03.55515,,  -97 24 43.8986,1,      181.5,21,   31 09 03.55,515,  -97 24 43.8,9861,      18,1.521, 1266446,405.00,  32.580,5001750,   3.45,40817975,   0.9,656229609,,     0.003,,     0.00
  31 09 03.55518,,  -97 24 43.8985,8,      181.5,22,   31 09 03.55,518,  -97 24 43.8,9858,      18,1.522, 1266446,406.00,  32.571,8599714,   3.40,14441649,   0.9,741313841,,    -0.004,,    -0.00
  31 09 03.55515,,  -97 24 43.8985,9,      181.5,20,   31 09 03.55,515,  -97 24 43.8,9859,      18,1.520, 1266446,407.00,  32.559,1976042,   3.51,95880622,   0.9,849946639,,    -0.006,,    -0.01
  31 09 03.55521,,  -97 24 43.8985,9,      181.5,25,   31 09 03.55,521,  -97 24 43.8,9859,      18,1.525, 1266446,408.00,  32.581,5887948,   3.41,32585546,   0.8,782010605,,    -0.005,,    -0.01
  31 09 03.55524,,  -97 24 43.8985,9,      181.5,26,   31 09 03.55,524,  -97 24 43.8,9859,      18,1.526, 1266446,409.00,  32.615,5651920,   3.40,49563962,   0.9,680465723,,     0.007,,    -0.02
  31 09 03.55525,,  -97 24 43.8985,3,      181.5,25,   31 09 03.55,525,  -97 24 43.8,9853,      18,1.525, 1266446,410.00,  32.636,1572952,   3.42,73876938,   1.0,338908822,,    -0.006,,    -0.02
  31 09 03.55527,,  -97 24 43.8985,1,      181.5,28,   31 09 03.55,527,  -97 24 43.8,9851,      18,1.528, 1266446,411.00,  32.606,3176532,   3.36,26033560,   0.9,977601636,,     0.002,,    -0.00
  31 09 03.55531,,  -97 24 43.8984,1,      181.5,32,   31 09 03.55,531,  -97 24 43.8,9841,      18,1.532, 1266446,412.00,  32.538,4393432,   3.29,15852372,   0.9,500213201,,     0.018,,     0.00
  31 09 03.55530,,  -97 24 43.8984,1,      181.5,27,   31 09 03.55,530,  -97 24 43.8,9841,      18,1.527, 1266446,413.00,  32.515,8819948,   3.45,43338990,   0.9,206285852,,     0.011,,     0.01
  31 09 03.55531,,  -97 24 43.8984,4,      181.5,28,   31 09 03.55,531,  -97 24 43.8,9844,      18,1.528, 1266446,414.00,  32.574,6961125,   3.44,84324337,   0.9,763200829,,    -0.004,,    -0.00
  31 09 03.55526,,  -97 24 43.8985,0,      181.5,28,   31 09 03.55,526,  -97 24 43.8,9850,      18,1.528, 1266446,415.00,  32.598,0097652,   3.47,40149992,   0.9,833961117,,    -0.000,,    -0.01
  31 09 03.55526,,  -97 24 43.8984,5,      181.5,30,   31 09 03.55,526,  -97 24 43.8,9845,      18,1.530, 1266446,416.00,  32.608,6553210,   3.41,49258618,   0.9,837799934,,     0.002,,    -0.01
  31 09 03.55539,,  -97 24 43.8983,6,      181.5,36,   31 09 03.55,539,  -97 24 43.8,9836,      18,1.536, 1266446,417.00,  32.597,3852412,   3.27,38808414,   0.9,248627433,,    -0.003,,     0.00
  31 09 03.55540,,  -97 24 43.8983,4,      181.5,37,   31 09 03.55,540,  -97 24 43.8,9834,      18,1.537, 1266446,418.00,  32.621,7817841,   3.24,78857462,   1.0,263278393,,     0.006,,     0.00
  31 09 03.55537,,  -97 24 43.8983,7,      181.5,36,   31 09 03.55,537,  -97 24 43.8,9837,      18,1.536, 1266446,419.00,  32.636,1171882,   3.30,60524216,   1.0,366353500,,     0.017,,     0.00
  31 09 03.55530,,  -97 24 43.8984,0,      181.5,34,   31 09 03.55,530,  -97 24 43.8,9840,      18,1.534, 1266446,420.00,  32.577,4577691,   3.38,64154819,   0.9,263180561,,    -0.008,,    -0.01
  31 09 03.55529,,  -97 24 43.8983,1,      181.5,35,   31 09 03.55,529,  -97 24 43.8,9831,      18,1.535, 1266446,421.00,  32.484,2203471,   3.36,07125952,   0.9,006839244,,     0.000,,    -0.00
  31 09 03.55535,,  -97 24 43.8982,8,      181.5,35,   31 09 03.55,535,  -97 24 43.8,9828,      18,1.535, 1266446,422.00,  32.555,9317447,   3.34,08195006,   1.0,773554605,,     0.007,,     0.01
  31 09 03.55537,,  -97 24 43.8982,8,      181.5,37,   31 09 03.55,537,  -97 24 43.8,9828,      18,1.537, 1266446,423.00,  32.565,2423089,   3.27,69232473,   1.0,544027712,,     0.014,,     0.01
  31 09 03.55543,,  -97 24 43.8982,0,      181.5,39,   31 09 03.55,543,  -97 24 43.8,9820,      18,1.539, 1266446,424.00,  32.502,5206191,   3.18,90372511,   0.9,694732373,,     0.001,,     0.02
  31 09 03.55548,,  -97 24 43.8982,8,      181.5,37,   31 09 03.55,548,  -97 24 43.8,9828,      18,1.537, 1266446,425.00,  32.587,9142488,   3.28,10657321,   0.9,461710437,,     0.002,,     0.00
  31 09 03.55542,,  -97 24 43.8983,3,      181.5,34,   31 09 03.55,542,  -97 24 43.8,9833,      18,1.534, 1266446,426.00,  32.565,8725625,   3.39,59494996,   0.9,444292520,,     0.007,,    -0.00
  31 09 03.55548,,  -97 24 43.8983,1,      181.5,37,   31 09 03.55,548,  -97 24 43.8,9831,      18,1.537, 1266446,427.00,  32.554,2701671,   3.27,58632753,   0.9,811501171,,     0.015,,    -0.00
  31 09 03.55547,,  -97 24 43.8983,5,      181.5,34,   31 09 03.55,547,  -97 24 43.8,9835,      18,1.534, 1266446,428.00,  32.600,5193203,   3.35,42439017,   1.0,096948745,,     0.018,,     0.00
  31 09 03.55543,,  -97 24 43.8983,5,      181.5,31,   31 09 03.55,543,  -97 24 43.8,9835,      18,1.531, 1266446,429.00,  32.570,8802136,   3.43,92651089,   0.9,790187141,,    -0.006,,    -0.01
  31 09 03.55549,,  -97 24 43.8983,5,      181.5,35,   31 09 03.55,549,  -97 24 43.8,9835,      18,1.535, 1266446,430.00,  32.544,2663240,   3.33,21391900,   0.9,090433786,,    -0.001,,    -0.00
  31 09 03.55545,,  -97 24 43.8984,5,      181.5,30,   31 09 03.55,545,  -97 24 43.8,9845,      18,1.530, 1266446,431.00,  32.545,0856537,   3.44,51780334,   0.6,404751417,,     0.013,,     0.00
  31 09 03.55540,,  -97 24 43.8984,4,      181.5,29,   31 09 03.55,540,  -97 24 43.8,9844,      18,1.529, 1266446,432.00,  32.542,3297267,   3.45,44885976,   0.8,579871095,,    -0.001,,     0.00
  31 09 03.55551,,  -97 24 43.8983,7,      181.5,31,   31 09 03.55,551,  -97 24 43.8,9837,      18,1.531, 1266446,433.00,  32.627,8207593,   3.37,42286696,   0.7,007617609,,    -0.007,,    -0.01
  31 09 03.55550,,  -97 24 43.8983,4,      181.5,33,   31 09 03.55,550,  -97 24 43.8,9834,      18,1.533, 1266446,434.00,  32.554,5967531,   3.28,70474115,   0.7,895816783,,    -0.000,,    -0.01
  31 09 03.55543,,  -97 24 43.8983,2,      181.5,32,   31 09 03.55,543,  -97 24 43.8,9832,      18,1.532, 1266446,435.00,  32.511,1092564,   3.26,78533254,   0.9,108481957,,     0.006,,     0.00
  31 09 03.55530,,  -97 24 43.8985,0,      181.5,22,   31 09 03.55,530,  -97 24 43.8,9850,      18,1.522, 1266446,436.00,  32.627,6374128,   3.59,22276515,   0.9,565988756,,    -0.006,,     0.01
  31 09 03.55529,,  -97 24 43.8984,7,      181.5,20,   31 09 03.55,529,  -97 24 43.8,9847,      18,1.520, 1266446,437.00,  32.684,7154683,   3.61,92311524,   1.1,093436942,,     0.002,,    -0.01
  31 09 03.55538,,  -97 24 43.8983,1,      181.5,26,   31 09 03.55,538,  -97 24 43.8,9831,      18,1.526, 1266446,438.00,  32.565,0876103,   3.42,87398742,   0.9,846623484,,    -0.001,,    -0.01
  31 09 03.55537,,  -97 24 43.8983,3,      181.5,26,   31 09 03.55,537,  -97 24 43.8,9833,      18,1.526, 1266446,439.00,  32.514,2662539,   3.44,54931602,   0.8,819653932,,    -0.001,,    -0.02
  31 09 03.55542,,  -97 24 43.8982,7,      181.5,27,   31 09 03.55,542,  -97 24 43.8,9827,      18,1.527, 1266446,440.00,  32.524,6196012,   3.33,78401200,   0.9,797635593,,    -0.001,,    -0.00
  31 09 03.55547,,  -97 24 43.8982,8,      181.5,29,   31 09 03.55,547,  -97 24 43.8,9828,      18,1.529, 1266446,441.00,  32.568,9378867,   3.25,43315214,   0.9,928098082,,    -0.004,,    -0.00
  31 09 03.55543,,  -97 24 43.8982,6,      181.5,31,   31 09 03.55,543,  -97 24 43.8,9826,      18,1.531, 1266446,442.00,  32.480,4445552,   3.18,11189743,   0.8,522919090,,     0.011,,     0.01
  31 09 03.55532,,  -97 24 43.8983,3,      181.5,27,   31 09 03.55,532,  -97 24 43.8,9833,      18,1.527, 1266446,443.00,  32.461,0499339,   3.30,12223874,   0.8,922327969,,    -0.007,,     0.02
  31 09 03.55535,,  -97 24 43.8983,8,      181.5,25,   31 09 03.55,535,  -97 24 43.8,9838,      18,1.525, 1266446,444.00,  32.540,5707462,   3.38,07947659,   0.9,365167049,,     0.011,,     0.01
  31 09 03.55536,,  -97 24 43.8984,2,      181.5,23,   31 09 03.55,536,  -97 24 43.8,9842,      18,1.523, 1266446,445.00,  32.546,0482228,   3.45,02028733,   0.9,394445192,,     0.008,,     0.01
  31 09 03.55550,,  -97 24 43.8983,5,      181.5,25,   31 09 03.55,550,  -97 24 43.8,9835,      18,1.525, 1266446,446.00,  32.514,8850483,   3.35,86098401,   0.8,883825205,,    -0.012,,    -0.01
  31 09 03.55546,,  -97 24 43.8984,3,      181.5,23,   31 09 03.55,546,  -97 24 43.8,9843,      18,1.523, 1266446,447.00,  32.558,6991309,   3.44,69083659,   0.9,834419483,,    -0.010,,    -0.02
  31 09 03.55547,,  -97 24 43.8984,0,      181.5,23,   31 09 03.55,547,  -97 24 43.8,9840,      18,1.523, 1266446,448.00,  32.510,6566198,   3.46,38679167,   0.9,870687711,,    -0.013,,    -0.01
  31 09 03.55551,,  -97 24 43.8984,6,      181.5,24,   31 09 03.55,551,  -97 24 43.8,9846,      18,1.524, 1266446,449.00,  32.561,5008945,   3.43,51856494,   0.9,658865215,,    -0.007,,    -0.01
  31 09 03.55551,,  -97 24 43.8984,3,      181.5,26,   31 09 03.55,551,  -97 24 43.8,9843,      18,1.526, 1266446,450.00,  32.497,5416158,   3.41,86042508,   0.8,846754836,,     0.004,,    -0.01
  31 09 03.55547,,  -97 24 43.8983,1,      181.5,26,   31 09 03.55,547,  -97 24 43.8,9831,      18,1.526, 1266446,451.00,  32.466,6935681,   3.41,25423574,   0.9,080120546,,    -0.006,,     0.00
  31 09 03.55544,,  -97 24 43.8983,6,      181.5,25,   31 09 03.55,544,  -97 24 43.8,9836,      18,1.525, 1266446,452.00,  32.515,2803892,   3.44,15168331,   0.9,153287256,,    -0.003,,     0.00
  31 09 03.55542,,  -97 24 43.8983,7,      181.5,25,   31 09 03.55,542,  -97 24 43.8,9837,      18,1.525, 1266446,453.00,  32.518,2654993,   3.44,92804112,   0.9,678231188,,     0.010,,     0.00
  31 09 03.55545,,  -97 24 43.8983,8,      181.5,26,   31 09 03.55,545,  -97 24 43.8,9838,      18,1.526, 1266446,454.00,  32.583,5884175,   3.40,80217204,   1.1,549797826,,    -0.001,,     0.00
  31 09 03.55546,,  -97 24 43.8984,3,      181.5,25,   31 09 03.55,546,  -97 24 43.8,9843,      18,1.525, 1266446,455.00,  32.551,9382289,   3.45,26723213,   0.9,519808358,,     0.004,,    -0.00
  31 09 03.55546,,  -97 24 43.8983,9,      181.5,27,   31 09 03.55,546,  -97 24 43.8,9839,      18,1.527, 1266446,456.00,  32.483,5156090,   3.34,85773491,   0.7,763979194,,    -0.008,,    -0.03
  31 09 03.55536,,  -97 24 43.8984,1,      181.5,25,   31 09 03.55,536,  -97 24 43.8,9841,      18,1.525, 1266446,457.00,  32.462,7229706,   3.45,21394706,   0.7,874560049,,    -0.005,,    -0.02
  31 09 03.55542,,  -97 24 43.8984,2,      181.5,25,   31 09 03.55,542,  -97 24 43.8,9842,      18,1.525, 1266446,458.00,  32.508,5710534,   3.43,20000041,   0.9,175116948,,    -0.009,,    -0.02
  31 09 03.55550,,  -97 24 43.8984,9,      181.5,28,   31 09 03.55,550,  -97 24 43.8,9849,      18,1.528, 1266446,459.00,  32.640,0705969,   3.34,77293716,   1.0,016047104,,    -0.017,,     0.00
  31 09 03.55556,,  -97 24 43.8984,9,      181.5,29,   31 09 03.55,556,  -97 24 43.8,9849,      18,1.529, 1266446,460.00,  32.606,4895406,   3.29,25821838,   0.9,216942867,,     0.002,,     0.00
  31 09 03.55554,,  -97 24 43.8985,0,      181.5,30,   31 09 03.55,554,  -97 24 43.8,9850,      18,1.530, 1266446,461.00,  32.529,9652975,   3.24,83326533,   0.7,931512054,,     0.010,,     0.02
  31 09 03.55553,,  -97 24 43.8984,9,      181.5,27,   31 09 03.55,553,  -97 24 43.8,9849,      18,1.527, 1266446,462.00,  32.547,9733610,   3.33,47003113,   0.7,614780985,,     0.003,,     0.01
  31 09 03.55547,,  -97 24 43.8985,5,      181.5,26,   31 09 03.55,547,  -97 24 43.8,9855,      18,1.526, 1266446,463.00,  32.542,6849605,   3.38,55388565,   0.8,398300769,,    -0.005,,     0.01
  31 09 03.55546,,  -97 24 43.8985,0,      181.5,26,   31 09 03.55,546,  -97 24 43.8,9850,      18,1.526, 1266446,464.00,  32.465,6622441,   3.36,82298015,   0.7,020967526,,    -0.008,,     0.00
  31 09 03.55545,,  -97 24 43.8985,0,      181.5,26,   31 09 03.55,545,  -97 24 43.8,9850,      18,1.526, 1266446,465.00,  32.535,3682895,   3.37,88066024,   0.9,835164328,,     0.000,,    -0.00
  31 09 03.55542,,  -97 24 43.8986,0,      181.5,22,   31 09 03.55,542,  -97 24 43.8,9860,      18,1.522, 1266446,466.00,  32.544,0772479,   3.46,38564575,   0.8,162757820,,    -0.005,,    -0.00
  31 09 03.55548,,  -97 24 43.8985,0,      181.5,28,   31 09 03.55,548,  -97 24 43.8,9850,      18,1.528, 1266446,467.00,  32.523,1470997,   3.28,51451916,   0.8,777828013,,    -0.016,,    -0.00
  31 09 03.55546,,  -97 24 43.8985,5,      181.5,27,   31 09 03.55,546,  -97 24 43.8,9855,      18,1.527, 1266446,468.00,  32.545,4867241,   3.31,06074360,   0.8,278495295,,    -0.006,,    -0.01
  31 09 03.55543,,  -97 24 43.8985,3,      181.5,26,   31 09 03.55,543,  -97 24 43.8,9853,      18,1.526, 1266446,469.00,  32.535,9698951,   3.34,95571070,   0.9,420743955,,     0.002,,     0.00
  31 09 03.55539,,  -97 24 43.8985,2,      181.5,24,   31 09 03.55,539,  -97 24 43.8,9852,      18,1.524, 1266446,470.00,  32.500,9449851,   3.38,89995216,   0.7,503569877,,     0.008,,     0.00
  31 09 03.55542,,  -97 24 43.8984,9,      181.5,24,   31 09 03.55,542,  -97 24 43.8,9849,      18,1.524, 1266446,471.00,  32.529,0772129,   3.34,74944589,   0.8,637625240,,     0.007,,    -0.01
  31 09 03.55540,,  -97 24 43.8985,6,      181.5,25,   31 09 03.55,540,  -97 24 43.8,9856,      18,1.525, 1266446,472.00,  32.555,4046236,   3.33,29413309,   0.8,793355169,,     0.002,,    -0.01
  31 09 03.55540,,  -97 24 43.8985,2,      181.5,27,   31 09 03.55,540,  -97 24 43.8,9852,      18,1.527, 1266446,473.00,  32.516,0481526,   3.25,94251162,   0.8,566922249,,     0.008,,     0.00
  31 09 03.55544,,  -97 24 43.8985,1,      181.5,26,   31 09 03.55,544,  -97 24 43.8,9851,      18,1.526, 1266446,474.00,  32.478,6168199,   3.24,16748837,   0.8,027654372,,     0.005,,     0.00
  31 09 03.55537,,  -97 24 43.8985,9,      181.5,22,   31 09 03.55,537,  -97 24 43.8,9859,      18,1.522, 1266446,475.00,  32.546,6097214,   3.36,33367419,   0.9,083329109,,    -0.001,,     0.00
  31 09 03.55537,,  -97 24 43.8985,4,      181.5,23,   31 09 03.55,537,  -97 24 43.8,9854,      18,1.523, 1266446,476.00,  32.494,4018071,   3.33,16865533,   0.8,088846264,,     0.010,,     0.00
  31 09 03.55528,,  -97 24 43.8985,9,      181.5,19,   31 09 03.55,528,  -97 24 43.8,9859,      18,1.519, 1266446,477.00,  32.483,1431864,   3.43,07796040,   0.8,379679641,,     0.003,,     0.00
  31 09 03.55534,,  -97 24 43.8986,0,      181.5,19,   31 09 03.55,534,  -97 24 43.8,9860,      18,1.519, 1266446,478.00,  32.537,3335347,   3.39,86366717,   0.8,215756416,,    -0.012,,     0.00
  31 09 03.55532,,  -97 24 43.8986,1,      181.5,20,   31 09 03.55,532,  -97 24 43.8,9861,      18,1.520, 1266446,479.00,  32.564,8928046,   3.34,43260023,   0.9,093756941,,    -0.002,,    -0.01
  31 09 03.55537,,  -97 24 43.8985,9,      181.5,21,   31 09 03.55,537,  -97 24 43.8,9859,      18,1.521, 1266446,480.00,  32.527,8167057,   3.32,17113581,   0.7,679983582,,     0.003,,     0.00
  31 09 03.55533,,  -97 24 43.8986,1,      181.5,19,   31 09 03.55,533,  -97 24 43.8,9861,      18,1.519, 1266446,481.00,  32.535,1906725,   3.38,08234138,   0.7,734357276,,     0.014,,     0.00
  31 09 03.55532,,  -97 24 43.8986,4,      181.5,18,   31 09 03.55,532,  -97 24 43.8,9864,      18,1.518, 1266446,482.00,  32.543,2006225,   3.41,61061549,   0.7,609738956,,     0.005,,    -0.00
  31 09 03.55527,,  -97 24 43.8986,4,      181.5,19,   31 09 03.55,527,  -97 24 43.8,9864,      18,1.519, 1266446,483.00,  32.569,4306304,   3.40,34036805,   0.8,817476692,,     0.016,,     0.00
  31 09 03.55529,,  -97 24 43.8986,0,      181.5,21,   31 09 03.55,529,  -97 24 43.8,9860,      18,1.521, 1266446,484.00,  32.586,5964459,   3.37,24696892,   1.0,423190913,,     0.004,,     0.01
  31 09 03.55529,,  -97 24 43.8986,5,      181.5,17,   31 09 03.55,529,  -97 24 43.8,9865,      18,1.517, 1266446,485.00,  32.481,1435637,   3.47,19752695,   0.5,561529430,,     0.006,,    -0.01
  31 09 03.55531,,  -97 24 43.8986,4,      181.5,21,   31 09 03.55,531,  -97 24 43.8,9864,      18,1.521, 1266446,486.00,  32.532,5779850,   3.35,74581950,   0.8,710849247,,     0.005,,    -0.01
  31 09 03.55528,,  -97 24 43.8986,4,      181.5,21,   31 09 03.55,528,  -97 24 43.8,9864,      18,1.521, 1266446,487.00,  32.579,3313411,   3.37,86289855,   0.9,380293135,,    -0.001,,    -0.01
  31 09 03.55536,,  -97 24 43.8985,8,      181.5,23,   31 09 03.55,536,  -97 24 43.8,9858,      18,1.523, 1266446,488.00,  32.510,7253747,   3.31,65776563,   0.8,108842491,,    -0.004,,     0.00
  31 09 03.55534,,  -97 24 43.8985,7,      181.5,23,   31 09 03.55,534,  -97 24 43.8,9857,      18,1.523, 1266446,489.00,  32.438,6243658,   3.31,01949064,   0.5,930227771,,    -0.005,,    -0.00
  31 09 03.55531,,  -97 24 43.8986,2,      181.5,21,   31 09 03.55,531,  -97 24 43.8,9862,      18,1.521, 1266446,490.00,  32.506,6688335,   3.36,14574404,   0.7,256968842,,    -0.001,,     0.00
  31 09 03.55529,,  -97 24 43.8986,3,      181.5,21,   31 09 03.55,529,  -97 24 43.8,9863,      18,1.521, 1266446,491.00,  32.576,3003943,   3.37,85143939,   0.9,713697276,,     0.009,,    -0.00
  31 09 03.55532,,  -97 24 43.8986,3,      181.5,22,   31 09 03.55,532,  -97 24 43.8,9863,      18,1.522, 1266446,492.00,  32.536,1245937,   3.36,92553960,   0.8,666158539,,    -0.004,,    -0.00
  31 09 03.55530,,  -97 24 43.8986,0,      181.5,23,   31 09 03.55,530,  -97 24 43.8,9860,      18,1.523, 1266446,493.00,  32.475,9926731,   3.37,50651880,   0.6,788805027,,    -0.003,,    -0.00
  31 09 03.55534,,  -97 24 43.8985,6,      181.5,23,   31 09 03.55,534,  -97 24 43.8,9856,      18,1.523, 1266446,494.00,  32.506,3365180,   3.35,35277045,   0.9,296813184,,    -0.009,,     0.00
  31 09 03.55533,,  -97 24 43.8985,5,      181.5,22,   31 09 03.55,533,  -97 24 43.8,9855,      18,1.522, 1266446,495.00,  32.533,0592695,   3.39,20476570,   0.8,771754660,,    -0.011,,    -0.00
  31 09 03.55536,,  -97 24 43.8985,2,      181.5,26,   31 09 03.55,536,  -97 24 43.8,9852,      18,1.526, 1266446,496.00,  32.491,3021054,   3.28,78438228,   0.8,262681659,,     0.002,,    -0.00
  31 09 03.55535,,  -97 24 43.8985,7,      181.5,23,   31 09 03.55,535,  -97 24 43.8,9857,      18,1.523, 1266446,497.00,  32.452,5128627,   3.36,72156662,   0.6,823927340,,     0.004,,     0.00
  31 09 03.55534,,  -97 24 43.8985,8,      181.5,22,   31 09 03.55,534,  -97 24 43.8,9858,      18,1.522, 1266446,498.00,  32.517,8185922,   3.39,47921249,   0.8,258613659,,    -0.006,,     0.00
  31 09 03.55532,,  -97 24 43.8985,7,      181.5,23,   31 09 03.55,532,  -97 24 43.8,9857,      18,1.523, 1266446,499.00,  32.464,5392468,   3.32,31494822,   0.7,869919091,,    -0.004,,    -0.01
  31 09 03.55533,,  -97 24 43.8985,8,      181.5,24,   31 09 03.55,533,  -97 24 43.8,9858,      18,1.524, 1266446,500.00,  32.443,7294197,   3.30,85333288,   0.7,512966384,,     0.008,,     0.00
  31 09 03.55537,,  -97 24 43.8985,9,      181.5,22,   31 09 03.55,537,  -97 24 43.8,9859,      18,1.522, 1266446,501.00,  32.428,9528382,   3.34,93393830,   0.6,831203904,,    -0.006,,     0.00
  31 09 03.55539,,  -97 24 43.8986,2,      181.5,22,   31 09 03.55,539,  -97 24 43.8,9862,      18,1.522, 1266446,502.00,  32.509,8888563,   3.34,50994953,   0.8,771410886,,    -0.010,,    -0.00
  31 09 03.55536,,  -97 24 43.8986,6,      181.5,23,   31 09 03.55,536,  -97 24 43.8,9866,      18,1.523, 1266446,503.00,  32.467,9769936,   3.32,96640123,   0.7,488214608,,    -0.009,,    -0.01
  31 09 03.55546,,  -97 24 43.8986,4,      181.5,24,   31 09 03.55,546,  -97 24 43.8,9864,      18,1.524, 1266446,504.00,  32.508,1069576,   3.24,24598359,   0.8,232372192,,     0.010,,     0.00
  31 09 03.55543,,  -97 24 43.8987,2,      181.5,21,   31 09 03.55,543,  -97 24 43.8,9872,      18,1.521, 1266446,505.00,  32.518,7066768,   3.33,52045142,   0.8,279182844,,    -0.001,,    -0.00
  31 09 03.55542,,  -97 24 43.8987,2,      181.5,22,   31 09 03.55,542,  -97 24 43.8,9872,      18,1.522, 1266446,506.00,  32.477,2646395,   3.31,85715494,   0.8,134396409,,     0.000,,    -0.00
  31 09 03.55541,,  -97 24 43.8987,5,      181.5,23,   31 09 03.55,541,  -97 24 43.8,9875,      18,1.523, 1266446,507.00,  32.449,5850484,   3.28,04182898,   0.8,504297962,,    -0.001,,     0.01
  31 09 03.55543,,  -97 24 43.8987,9,      181.5,20,   31 09 03.55,543,  -97 24 43.8,9879,      18,1.520, 1266446,508.00,  32.465,2611736,   3.37,01033735,   0.7,574043685,,    -0.012,,    -0.00
  31 09 03.55610,,  -97 24 43.8983,1,      181.5,17,   31 09 03.55,610,  -97 24 43.8,9831,      18,1.517, 1266446,509.00,  32.429,1075368,   3.48,25291521,   0.6,865695963,,     0.031,,     0.05
  31 09 03.55836,,  -97 24 43.8969,6,      181.5,22,   31 09 03.55,836,  -97 24 43.8,9696,      18,1.522, 1266446,510.00,  32.774,1026140,   3.32,93660743,   0.7,978494593,,     0.021,,     0.04
  31 09 03.56001,,  -97 24 43.8959,7,      181.5,20,   31 09 03.56,001,  -97 24 43.8,9597,      18,1.520, 1266446,511.00,  33.007,9324197,   3.41,81000480,   0.9,080063250,,     0.076,,     0.09
  31 09 03.56680,,  -97 24 43.8910,5,      181.5,11,   31 09 03.56,680,  -97 24 43.8,9105,      18,1.511, 1266446,512.00,  33.285,8570574,   3.75,07192368,   0.6,515103088,,     0.220,,     0.35
  31 09 03.58245,,  -97 24 43.8801,7,      181.5,06,   31 09 03.58,245,  -97 24 43.8,8017,      18,1.506, 1266446,513.00,  35.244,5132801,   3.75,81275811,   0.8,850880132,,     0.404,,     0.62
  31 09 03.60567,,  -97 24 43.8622,6,      181.5,15,   31 09 03.60,567,  -97 24 43.8,6226,      18,1.515, 1266446,514.00,  38.382,2593493,   2.73,04189135,   0.8,939115632,,     0.529,,     0.77
  31 09 03.63448,,  -97 24 43.8363,7,      181.4,96,   31 09 03.63,448,  -97 24 43.8,3637,      18,1.496, 1266446,515.00,  44.369,4276662,   3.14,65409714,   0.3,765535925,,     0.909,,     1.01
  31 09 03.67167,,  -97 24 43.7938,2,      181.4,74,   31 09 03.67,167,  -97 24 43.7,9382,      18,1.474, 1266446,516.00,  50.808,0809960,   3.50,92805515,   0.7,548432472,,     1.378,,     1.22
  31 09 03.71063,,  -97 24 43.7371,4,      181.4,64,   31 09 03.71,063,  -97 24 43.7,3714,      18,1.464, 1266446,517.00,  56.635,2050119,   3.43,08483589,   0.6,304025437,,     1.617,,     1.14
  31 09 03.74822,,  -97 24 43.6703,9,      181.4,49,   31 09 03.74,822,  -97 24 43.6,7039,      18,1.449, 1266446,518.00,  60.104,5504051,   3.69,19910628,   0.5,818615593,,     1.990,,     1.22
  31 09 03.79013,,  -97 24 43.5854,6,      181.4,34,   31 09 03.79,013,  -97 24 43.5,8546,      18,1.434, 1266446,519.00,  62.794,4325546,   3.67,70540531,   0.4,995103354,,     2.480,,     1.34
  31 09 03.83572,,  -97 24 43.4833,3,      181.4,19,   31 09 03.83,572,  -97 24 43.4,8333,      18,1.419, 1266446,520.00,  64.329,7875583,   3.46,63201760,   0.5,504176355,,     2.916,,     1.44
  31 09 03.88575,,  -97 24 43.3654,5,      181.3,88,   31 09 03.88,575,  -97 24 43.3,6545,      18,1.388, 1266446,521.00,  64.810,7627090,   3.26,08460515,   0.2,590284896,,     3.350,,     1.63
  31 09 03.94167,,  -97 24 43.2316,8,      181.3,38,   31 09 03.94,167,  -97 24 43.2,3168,      18,1.338, 1266446,522.00,  65.076,1682188,   3.35,93947923,   0.4,561087824,,     3.722,,     1.80
  31 09 04.00097,,  -97 24 43.0870,1,      181.2,95,   31 09 04.00,097,  -97 24 43.0,8701,      18,1.295, 1266446,523.00,  66.805,4923544,   3.27,76394445,   0.4,819434494,,     3.966,,     1.83
  31 09 04.05881,,  -97 24 42.9316,6,      181.2,53,   31 09 04.05,881,  -97 24 42.9,3166,      18,1.253, 1266446,524.00,  67.832,0837542,   3.03,48886859,   0.5,711988147,,     4.232,,     1.77
  31 09 04.11921,,  -97 24 42.7672,4,      181.1,89,   31 09 04.11,921,  -97 24 42.7,6724,      18,1.189, 1266446,525.00,  66.741,2523264,   3.37,63486135,   0.5,815292437,,     4.530,,     1.98
  31 09 04.18662,,  -97 24 42.5931,7,      181.1,47,   31 09 04.18,662,  -97 24 42.5,9317,      18,1.147, 1266446,526.00,  64.393,2311749,   3.05,67355666,   0.5,775070800,,     4.653,,     2.21
  31 09 04.26402,,  -97 24 42.4186,6,      181.1,03,   31 09 04.26,402,  -97 24 42.4,1866,      18,1.103, 1266446,527.00,  58.966,2666127,   3.34,72079800,   0.6,222092472,,     4.558,,     2.64
  31 09 04.35880,,  -97 24 42.2490,2,      181.0,80,   31 09 04.35,880,  -97 24 42.2,4902,      18,1.080, 1266446,528.00,  53.036,8524416,   3.40,16733480,   1.1,296034818,,     4.442,,     3.24
  31 09 04.47421,,  -97 24 42.0797,6,      181.0,26,   31 09 04.47,421,  -97 24 42.0,7976,      18,1.026, 1266446,529.00,  49.542,8297562,   3.07,19246777,   0.7,668180651,,     4.516,,     3.85
  31 09 04.60552,,  -97 24 41.9091,8,      180.9,53,   31 09 04.60,552,  -97 24 41.9,0918,      18,0.953, 1266446,530.00,  45.033,4456437,   2.99,49707163,   0.7,947382985,,     4.431,,     4.26
  31 09 04.75404,,  -97 24 41.7491,4,      180.8,75,   31 09 04.75,404,  -97 24 41.7,4914,      18,0.875, 1266446,531.00,  37.674,1178920,   3.99,21292742,   0.8,595856617,,     4.022,,     4.94
  31 09 04.92705,,  -97 24 41.6043,0,      180.8,27,   31 09 04.92,705,  -97 24 41.6,0430,      18,0.827, 1266446,532.00,  31.800,9796355,   4.08,82773218,   1.2,563073686,,     3.649,,     5.70
  31 09 05.12193,,  -97 24 41.4730,2,      180.8,12,   31 09 05.12,193,  -97 24 41.4,7302,      18,0.812, 1266446,533.00,  27.134,7082196,   4.27,10909655,   1.2,008565132,,     3.289,,     6.25
  31 09 05.33137,,  -97 24 41.3558,9,      180.8,11,   31 09 05.33,137,  -97 24 41.3,5589,      18,0.811, 1266446,534.00,  22.139,4329785,   4.24,88659326,   1.3,558415968,,     2.847,,     6.67
  31 09 05.55649,,  -97 24 41.2566,5,      180.8,29,   31 09 05.55,649,  -97 24 41.2,5665,      18,0.829, 1266446,535.00,  17.708,9566136,   4.25,88182095,   1.0,834402723,,     2.409,,     7.18
  31 09 05.79588,,  -97 24 41.1714,6,      180.8,59,   31 09 05.79,588,  -97 24 41.1,7146,      18,0.859, 1266446,536.00,  15.946,6415682,   4.34,42290280,   1.1,188605232,,     2.163,,     7.53
  31 09 06.04476,,  -97 24 41.0902,0,      180.9,01,   31 09 06.04,476,  -97 24 41.0,9020,      18,0.901, 1266446,537.00,  15.731,2037076,   4.36,86370301,   0.9,126816606,,     2.174,,     7.76
  31 09 06.30077,,  -97 24 41.0083,6,      180.9,39,   31 09 06.30,077,  -97 24 41.0,0836,      18,0.939, 1266446,538.00,  15.133,6889414,   4.28,97120938,   0.8,284969718,,     2.153,,     8.01
  31 09 06.56529,,  -97 24 40.9268,8,      180.9,71,   31 09 06.56,529,  -97 24 40.9,2688,      18,0.971, 1266446,539.00,  14.886,2914950,   4.16,97633794,   0.8,266176702,,     2.174,,     8.27
  31 09 06.83693,,  -97 24 40.8452,1,      180.9,88,   31 09 06.83,693,  -97 24 40.8,4521,      18,0.988, 1266446,540.00,  14.041,5912768,   4.23,58655202,   0.9,543013148,,     2.135,,     8.49
  31 09 07.11734,,  -97 24 40.7661,1,      180.9,99,   31 09 07.11,734,  -97 24 40.7,6611,      18,0.999, 1266446,541.00,  13.440,4611469,   4.01,99979414,   1.0,387151868,,     2.056,,     8.77
  31 09 07.40548,,  -97 24 40.6879,6,      181.0,00,   31 09 07.40,548,  -97 24 40.6,8796,      18,1.000, 1266446,542.00,  14.045,0118349,   3.95,26066455,   0.9,309131776,,     2.112,,     8.95
  31 09 07.69485,,  -97 24 40.6045,1,      181.0,05,   31 09 07.69,485,  -97 24 40.6,0451,      18,1.005, 1266446,543.00,  15.279,7931792,   3.75,26558341,   0.7,106223646,,     2.318,,     8.84
  31 09 07.98209,,  -97 24 40.5158,8,      180.9,85,   31 09 07.98,209,  -97 24 40.5,1588,      18,0.985, 1266446,544.00,  15.164,4052088,   4.19,57298267,   0.8,132161874,,     2.363,,     8.95
  31 09 08.27681,,  -97 24 40.4256,4,      180.9,80,   31 09 08.27,681,  -97 24 40.4,2564,      18,0.980, 1266446,545.00,  14.845,1015591,   3.91,93750934,   1.1,214846699,,     2.407,,     9.18
  31 09 08.57869,,  -97 24 40.3360,0,      180.9,58,   31 09 08.57,869,  -97 24 40.3,3600,      18,0.958, 1266446,546.00,  14.548,5214157,   4.01,06186222,   1.1,343934090,,     2.370,,     9.44
  31 09 08.88933,,  -97 24 40.2439,8,      180.9,47,   31 09 08.88,933,  -97 24 40.2,4398,      18,0.947, 1266446,547.00,  15.388,8728842,   3.88,60060314,   0.7,321999551,,     2.525,,     9.65
  31 09 09.20435,,  -97 24 40.1462,1,      180.9,36,   31 09 09.20,435,  -97 24 40.1,4621,      18,0.936, 1266446,548.00,  15.340,5782716,   3.83,94703993,   0.7,596847406,,     2.598,,     9.71
  31 09 09.51756,,  -97 24 40.0495,3,      180.9,22,   31 09 09.51,756,  -97 24 40.0,4953,      18,0.922, 1266446,549.00,  15.328,4544847,   3.58,00007322,   0.8,701395443,,     2.511,,     9.53
  31 09 09.82591,,  -97 24 39.9548,3,      180.9,01,   31 09 09.82,591,  -97 24 39.9,5483,      18,0.901, 1266446,550.00,  14.259,2121066,   3.66,61277479,   0.5,867832667,,     2.451,,     9.47
  31 09 10.13285,,  -97 24 39.8707,4,      180.8,78,   31 09 10.13,285,  -97 24 39.8,7074,      18,0.878, 1266446,551.00,   9.687,5188339,   3.87,07997315,   1.1,203845909,,     1.882,,     9.43
  31 09 10.43903,,  -97 24 39.8183,0,      180.8,67,   31 09 10.43,903,  -97 24 39.8,1830,      18,0.867, 1266446,552.00,   3.280,9511406,   4.14,39573603,   1.2,283871353,,     0.841,,     9.47
  31 09 10.75181,,  -97 24 39.8031,3,      180.8,66,   31 09 10.75,181,  -97 24 39.8,0313,      18,0.866, 1266446,553.00,  -0.642,1485898,   4.09,49866576,   1.0,541048332,,     0.022,,     9.78
  31 09 11.07140,,  -97 24 39.8111,2,      180.8,58,   31 09 11.07,140,  -97 24 39.8,1112,      18,0.858, 1266446,554.00,  -3.554,8769442,   4.15,71124713,   1.1,569679461,,    -0.447,,     9.88
  31 09 11.39291,,  -97 24 39.8394,3,      180.8,51,   31 09 11.39,291,  -97 24 39.8,3943,      18,0.851, 1266446,555.00,  -7.965,0075778,   4.11,99275104,   1.2,988093779,,    -1.126,,     9.92
  31 09 11.71734,,  -97 24 39.8970,8,      180.8,41,   31 09 11.71,734,  -97 24 39.8,9708,      18,0.841, 1266446,556.00, -11.985,3607530,   4.13,59244920,   1.3,264144845,,    -1.918,,    10.07
  31 09 12.04692,,  -97 24 39.9818,2,      180.8,23,   31 09 12.04,692,  -97 24 39.9,8182,      18,0.823, 1266446,557.00, -15.092,1842901,   4.20,23016526,   1.3,460153706,,    -2.555,,    10.21
  31 09 12.38075,,  -97 24 40.0881,5,      180.8,08,   31 09 12.38,075,  -97 24 40.0,8815,      18,0.808, 1266446,558.00, -17.088,7130230,   4.20,35220527,   1.3,403545476,,    -3.041,,    10.34
  31 09 12.71839,,  -97 24 40.2070,1,      180.7,95,   31 09 12.71,839,  -97 24 40.2,0701,      18,0.795, 1266446,559.00, -17.024,6448823,   4.17,34704164,   0.9,666657441,,    -3.209,,    10.50
  31 09 13.06336,,  -97 24 40.3273,6,      180.7,85,   31 09 13.06,336,  -97 24 40.3,2736,      18,0.785, 1266446,560.00, -16.221,2950282,   4.10,88178588,   0.8,898664812,,    -3.136,,    10.74
  31 09 13.41512,,  -97 24 40.4449,6,      180.7,70,   31 09 13.41,512,  -97 24 40.4,4496,      18,0.770, 1266446,561.00, -16.130,1890092,   4.26,45936241,   1.1,446436240,,    -3.123,,    10.94
  31 09 13.77402,,  -97 24 40.5639,1,      180.7,60,   31 09 13.77,402,  -97 24 40.5,6391,      18,0.760, 1266446,562.00, -16.117,0109799,   4.24,22196222,   1.0,726113700,,    -3.177,,    11.16
  31 09 14.13984,,  -97 24 40.6852,0,      180.7,66,   31 09 14.13,984,  -97 24 40.6,8520,      18,0.766, 1266446,563.00, -16.348,3197714,   4.14,80998452,   1.0,131784579,,    -3.253,,    11.35
