             x=-,0.104, y=0.413, z,=0.960 m (x-r,i        Latitude,        Longitude,        H-Ell,      CorrTime,        Heading,          Pitch,           Roll,     VEast,    VNorth,       VUp
             x=-,0.104, y=0.413, z,=0.960 m (x-r,ight, y-fwd, z-up,)
,,,,,,,,
Body to Sensor R,otations:
,,,,,,,,,,,
             xRo,t=0.000, yRot=90.,000, zRot=180,.000 degrees (Rot,ate IMU into Vehi,cle Frame)
,,,,,,,

,,,,,,,,,,,,
        Latitude,        Longitude,        H-Ell,         Latitude,        Longitude,        H-Ell,      CorrTime,        Heading,          Pitch,           Roll,     VEast,    VNorth,       VUp
      (+/-D M S),       (+/-D M S),          (m),       (+/-D M S),       (+/-D M S),          (m),         (sec),          (deg),          (deg),          (deg),     (m/s),     (m/s),     (m/s)
  33 16 37.00547,  -97 33 17.22509,     3490.290,   33 16 37.00547,  -97 33 17.22509,     3490.290, 1271009570.00, -17.1244713190,   0.6749156348,   2.9837063660,     0.270,    52.551,     0.073
  33 16 38.71186,  -97 33 17.20733,     3490.347,   33 16 38.71186,  -97 33 17.20733,     3490.347, 1271009571.00, -16.3928958878,   0.5879005344,   2.9735936609,     0.642,    52.643,     0.045
  33 16 40.42182,  -97 33 17.17423,     3490.383,   33 16 40.42182,  -97 33 17.17423,     3490.383, 1271009572.00, -15.6121205708,   0.6850111511,   2.5876607493,     1.063,    52.763,     0.045
  33 16 42.13465,  -97 33 17.12633,     3490.484,   33 16 42.13465,  -97 33 17.12633,     3490.484, 1271009573.00, -15.0282307410,   0.7078091418,   1.2048156516,     1.371,    52.816,     0.157
  33 16 43.84844,  -97 33 17.07046,     3490.623,   33 16 43.84844,  -97 33 17.07046,     3490.623, 1271009574.00, -14.8777662944,   0.5475585761,  -0.1613621038,     1.475,    52.827,     0.120
  33 16 45.56183,  -97 33 17.01441,     3490.708,   33 16 45.56183,  -97 33 17.01441,     3490.708, 1271009575.00, -15.0276635128,   0.6060862148,  -1.4955630847,     1.355,    52.793,     0.061
  33 16 47.27270,  -97 33 16.96821,     3490.805,   33 16 47.27270,  -97 33 16.96821,     3490.805, 1271009576.00, -15.5184247826,   0.7168504158,  -2.3093522299,     1.016,    52.667,     0.130
  33 16 48.97912,  -97 33 16.93687,     3490.957,   33 16 48.97912,  -97 33 16.93687,     3490.957, 1271009577.00, -16.3269599048,   0.7153091593,  -1.9838835544,     0.622,    52.533,     0.169
  33 16 50.68092,  -97 33 16.92052,     3491.157,   33 16 50.68092,  -97 33 16.92052,     3491.157, 1271009578.00, -17.0601797248,   0.8024445808,  -0.9540320247,     0.267,    52.389,     0.230
  33 16 52.37855,  -97 33 16.91462,     3491.460,   33 16 52.37855,  -97 33 16.91462,     3491.460, 1271009579.00, -17.4620695110,   0.9361213640,   0.6138956296,     0.092,    52.270,     0.347
  33 16 54.07320,  -97 33 16.91049,     3491.827,   33 16 54.07320,  -97 33 16.91049,     3491.827, 1271009580.00, -17.2068798387,   0.8286688591,   2.1929100172,     0.182,    52.229,     0.354
  33 16 55.76786,  -97 33 16.89729,     3492.128,   33 16 55.76786,  -97 33 16.89729,     3492.128, 1271009581.00, -16.6254938344,   0.7478531621,   3.2450094981,     0.543,    52.273,     0.226
  33 16 57.46498,  -97 33 16.86739,     3492.345,   33 16 57.46498,  -97 33 16.86739,     3492.345, 1271009582.00, -16.0819402333,   0.6263345433,   2.9480168250,     0.988,    52.356,     0.192
  33 16 59.16475,  -97 33 16.82201,     3492.470,   33 16 59.16475,  -97 33 16.82201,     3492.470, 1271009583.00, -15.3591195972,   0.5479711057,   2.3446578892,     1.358,    52.441,     0.101
  33 17 00.86697,  -97 33 16.76300,     3492.592,   33 17 00.86697,  -97 33 16.76300,     3492.592, 1271009584.00, -14.8960952143,   0.5571097825,   1.5274252677,     1.671,    52.493,     0.152
  33 17 02.57038,  -97 33 16.69410,     3492.739,   33 17 02.57038,  -97 33 16.69410,     3492.739, 1271009585.00, -14.7003957498,   0.4987941381,   0.6444858463,     1.858,    52.514,     0.129
  33 17 04.27407,  -97 33 16.62160,     3492.809,   33 17 04.27407,  -97 33 16.62160,     3492.809, 1271009586.00, -14.6576874757,   0.2894582781,  -0.8786250493,     1.838,    52.514,     0.026
  33 17 05.97716,  -97 33 16.55467,     3492.792,   33 17 05.97716,  -97 33 16.55467,     3492.792, 1271009587.00, -14.8107817986,   0.3490688071,  -1.7435392185,     1.606,    52.469,    -0.026
  33 17 07.67806,  -97 33 16.49885,     3492.823,   33 17 07.67806,  -97 33 16.49885,     3492.823, 1271009588.00, -15.2106433142,   0.5396001923,  -1.5792550299,     1.297,    52.390,     0.119
  33 17 09.37593,  -97 33 16.45398,     3492.992,   33 17 09.37593,  -97 33 16.45398,     3492.992, 1271009589.00, -15.8261145777,   0.6600645687,  -0.4820924184,     1.061,    52.298,     0.216
  33 17 11.07127,  -97 33 16.41536,     3493.229,   33 17 11.07127,  -97 33 16.41536,     3493.229, 1271009590.00, -16.1500305376,   0.6027458709,   0.5400241811,     0.958,    52.229,     0.233
  33 17 12.76560,  -97 33 16.37712,     3493.427,   33 17 12.76560,  -97 33 16.37712,     3493.427, 1271009591.00, -15.9857119716,   0.5086260939,   1.7796584779,     1.066,    52.243,     0.156
  33 17 14.46150,  -97 33 16.33071,     3493.565,   33 17 14.46150,  -97 33 16.33071,     3493.565, 1271009592.00, -15.6997086290,   0.5206066414,   2.4137737881,     1.354,    52.307,     0.128
  33 17 16.15985,  -97 33 16.27204,     3493.637,   33 17 16.15985,  -97 33 16.27204,     3493.637, 1271009593.00, -15.2726889139,   0.3486161704,   2.3123258809,     1.679,    52.397,    -0.001
  33 17 17.86105,  -97 33 16.20137,     3493.587,   33 17 17.86105,  -97 33 16.20137,     3493.587, 1271009594.00, -14.8161561427,   0.3442960687,   2.2305361556,     1.983,    52.486,    -0.052
  33 17 19.56557,  -97 33 16.11867,     3493.499,   33 17 19.56557,  -97 33 16.11867,     3493.499, 1271009595.00, -14.4973051297,   0.1600500305,   1.5730900040,     2.262,    52.590,    -0.145
  33 17 21.27298,  -97 33 16.02795,     3493.305,   33 17 21.27298,  -97 33 16.02795,     3493.305, 1271009596.00, -14.0335645495,   0.1632987012,   0.6780038773,     2.414,    52.673,    -0.216
  33 17 22.98276,  -97 33 15.93296,     3493.115,   33 17 22.98276,  -97 33 15.93296,     3493.115, 1271009597.00, -14.1159157734,   0.2423611473,  -0.1791237955,     2.461,    52.721,    -0.170
  33 17 24.69339,  -97 33 15.83971,     3492.980,   33 17 24.69339,  -97 33 15.83971,     3492.980, 1271009598.00, -14.1198863709,   0.2559345175,  -1.3311299271,     2.324,    52.725,    -0.106
  33 17 26.40342,  -97 33 15.75451,     3492.873,   33 17 26.40342,  -97 33 15.75451,     3492.873, 1271009599.00, -14.6758044012,   0.3221627090,  -1.6379660151,     2.070,    52.695,    -0.100
  33 17 28.11179,  -97 33 15.68088,     3492.841,   33 17 28.11179,  -97 33 15.68088,     3492.841, 1271009600.00, -15.1780935819,   0.4899419402,  -1.1610302169,     1.776,    52.627,     0.032
  33 17 29.81790,  -97 33 15.61715,     3492.939,   33 17 29.81790,  -97 33 15.61715,     3492.939, 1271009601.00, -15.6721550886,   0.5810422296,  -0.3614103180,     1.547,    52.562,     0.155
  33 17 31.52192,  -97 33 15.55947,     3493.117,   33 17 31.52192,  -97 33 15.55947,     3493.117, 1271009602.00, -15.7968536232,   0.5732500036,   0.8068047896,     1.483,    52.511,     0.187
  33 17 33.22563,  -97 33 15.50086,     3493.239,   33 17 33.22563,  -97 33 15.50086,     3493.239, 1271009603.00, -15.5541315124,   0.4567218472,   1.5301582764,     1.578,    52.525,     0.069
  33 17 34.93040,  -97 33 15.43639,     3493.293,   33 17 34.93040,  -97 33 15.43639,     3493.293, 1271009604.00, -15.0935364705,   0.3527357370,   1.5891557406,     1.755,    52.575,     0.031
  33 17 36.63715,  -97 33 15.36430,     3493.246,   33 17 36.63715,  -97 33 15.36430,     3493.246, 1271009605.00, -14.6091694096,   0.2723898654,   1.6550802645,     1.979,    52.648,    -0.110
  33 17 38.34661,  -97 33 15.28359,     3493.131,   33 17 38.34661,  -97 33 15.28359,     3493.131, 1271009606.00, -14.2290863971,   0.2722810034,   0.6473907423,     2.163,    52.729,    -0.123
  33 17 40.05792,  -97 33 15.19919,     3493.001,   33 17 40.05792,  -97 33 15.19919,     3493.001, 1271009607.00, -14.0902587233,   0.1848018072,  -0.5396402993,     2.165,    52.766,    -0.145
  33 17 41.76998,  -97 33 15.11797,     3492.848,   33 17 41.76998,  -97 33 15.11797,     3492.848, 1271009608.00, -14.1861489399,   0.2282434673,  -1.1798919875,     2.025,    52.778,    -0.137
  33 17 43.48182,  -97 33 15.04427,     3492.738,   33 17 43.48182,  -97 33 15.04427,     3492.738, 1271009609.00, -14.6065624517,   0.3575084754,  -1.4091782380,     1.787,    52.757,    -0.067
  33 17 45.19230,  -97 33 14.98077,     3492.741,   33 17 45.19230,  -97 33 14.98077,     3492.741, 1271009610.00, -15.1257137802,   0.5000374565,  -1.3138151425,     1.509,    52.694,     0.071
  33 17 46.90067,  -97 33 14.92752,     3492.908,   33 17 46.90067,  -97 33 14.92752,     3492.908, 1271009611.00, -15.5872198251,   0.6016629807,  -0.6006545749,     1.281,    52.633,     0.244
  33 17 48.60706,  -97 33 14.88095,     3493.187,   33 17 48.60706,  -97 33 14.88095,     3493.187, 1271009612.00, -15.9818502360,   0.5580207854,   0.3153044042,     1.162,    52.579,     0.275
  33 17 50.31249,  -97 33 14.83625,     3493.383,   33 17 50.31249,  -97 33 14.83625,     3493.383, 1271009613.00, -15.9963231499,   0.5676808538,   1.3350432289,     1.192,    52.571,     0.135
  33 17 52.01859,  -97 33 14.78709,     3493.490,   33 17 52.01859,  -97 33 14.78709,     3493.490, 1271009614.00, -15.8054308013,   0.3762270066,   1.8703576968,     1.359,    52.619,     0.023
  33 17 53.72683,  -97 33 14.73047,     3493.455,   33 17 53.72683,  -97 33 14.73047,     3493.455, 1271009615.00, -15.1890485349,   0.2895785992,   1.6496428950,     1.573,    52.693,    -0.063
  33 17 55.43779,  -97 33 14.66534,     3493.339,   33 17 55.43779,  -97 33 14.66534,     3493.339, 1271009616.00, -14.7495268807,   0.2966488984,   1.8649547048,     1.793,    52.780,    -0.147
  33 17 57.15196,  -97 33 14.58914,     3493.216,   33 17 57.15196,  -97 33 14.58914,     3493.216, 1271009617.00, -14.4899769995,   0.2271605770,   1.5297743947,     2.132,    52.891,    -0.159
  33 17 58.86896,  -97 33 14.50454,     3492.974,   33 17 58.86896,  -97 33 14.50454,     3492.974, 1271009618.00, -14.1747929164,   0.0206322102,  -0.0478534350,     2.201,    52.954,    -0.317
  33 18 00.58785,  -97 33 14.42079,     3492.611,   33 18 00.58785,  -97 33 14.42079,     3492.611, 1271009619.00, -14.0455164491,   0.1153249450,  -0.9644598565,     2.107,    53.004,    -0.361
  33 18 02.30730,  -97 33 14.34274,     3492.341,   33 18 02.30730,  -97 33 14.34274,     3492.341, 1271009620.00, -14.4023087273,   0.3092482403,  -1.5794555651,     1.909,    52.988,    -0.186
  33 18 04.02516,  -97 33 14.27464,     3492.254,   33 18 04.02516,  -97 33 14.27464,     3492.254, 1271009621.00, -14.9782401734,   0.4598100897,  -1.8237647689,     1.613,    52.908,     0.022
  33 18 05.73958,  -97 33 14.21939,     3492.358,   33 18 05.73958,  -97 33 14.21939,     3492.358, 1271009622.00, -15.4396029787,   0.5018537328,  -1.7068985675,     1.259,    52.791,     0.151
  33 18 07.45022,  -97 33 14.17629,     3492.552,   33 18 07.45022,  -97 33 14.17629,     3492.552, 1271009623.00, -15.7971916683,   0.5999383777,  -0.6197970949,     1.017,    52.682,     0.236
  33 18 09.15804,  -97 33 14.13921,     3492.834,   33 18 09.15804,  -97 33 14.13921,     3492.834, 1271009624.00, -16.0772763568,   0.6051351049,   0.0886480301,     0.927,    52.606,     0.289
  33 18 10.86381,  -97 33 14.10406,     3493.098,   33 18 10.86381,  -97 33 14.10406,     3493.098, 1271009625.00, -16.0707675563,   0.5656353945,   0.3212230583,     0.904,    52.562,     0.246
  33 18 12.56836,  -97 33 14.06876,     3493.375,   33 18 12.56836,  -97 33 14.06876,     3493.375, 1271009626.00, -15.9644666965,   0.5622664027,   0.9974106593,     0.949,    52.530,     0.296
  33 18 14.27277,  -97 33 14.02943,     3493.642,   33 18 14.27277,  -97 33 14.02943,     3493.642, 1271009627.00, -15.8020904574,   0.5394454937,   1.3683721838,     1.098,    52.549,     0.248
  33 18 15.97767,  -97 33 13.98335,     3493.879,   33 18 15.97767,  -97 33 13.98335,     3493.879, 1271009628.00, -15.5274488679,   0.4083412910,   1.0740437644,     1.268,    52.560,     0.213
  33 18 17.68337,  -97 33 13.93206,     3494.059,   33 18 17.68337,  -97 33 13.93206,     3494.059, 1271009629.00, -15.2001811049,   0.3477395450,   0.5816896719,     1.377,    52.591,     0.151
  33 18 19.39005,  -97 33 13.87722,     3494.188,   33 18 19.39005,  -97 33 13.87722,     3494.188, 1271009630.00, -15.2429237564,   0.4052816964,   0.3030259187,     1.453,    52.624,     0.125
  33 18 21.09716,  -97 33 13.82117,     3494.327,   33 18 21.09716,  -97 33 13.82117,     3494.327, 1271009631.00, -15.4618337412,   0.4025945243,  -0.1899125908,     1.427,    52.619,     0.154
  33 18 22.80385,  -97 33 13.76827,     3494.453,   33 18 22.80385,  -97 33 13.76827,     3494.453, 1271009632.00, -15.5171127093,   0.3927797573,  -0.4369318850,     1.307,    52.597,     0.086
  33 18 24.51003,  -97 33 13.71934,     3494.522,   33 18 24.51003,  -97 33 13.71934,     3494.522, 1271009633.00, -15.6048153590,   0.3969279717,   0.0388923751,     1.243,    52.598,     0.053
  33 18 26.21636,  -97 33 13.67204,     3494.560,   33 18 26.21636,  -97 33 13.67204,     3494.560, 1271009634.00, -15.7378962660,   0.3666185044,   0.1893339034,     1.206,    52.597,     0.030
  33 18 27.92303,  -97 33 13.62606,     3494.558,   33 18 27.92303,  -97 33 13.62606,     3494.558, 1271009635.00, -15.7183354869,   0.3813492493,   0.3534118272,     1.180,    52.622,    -0.029
  33 18 29.63037,  -97 33 13.58017,     3494.537,   33 18 29.63037,  -97 33 13.58017,     3494.537, 1271009636.00, -15.5791525793,   0.4155777480,   0.6259850391,     1.206,    52.640,    -0.016
  33 18 31.33866,  -97 33 13.53213,     3494.520,   33 18 31.33866,  -97 33 13.53213,     3494.520, 1271009637.00, -15.4484437175,   0.4147183113,   0.8008517581,     1.290,    52.674,    -0.016
  33 18 33.04808,  -97 33 13.48068,     3494.476,   33 18 33.04808,  -97 33 13.48068,     3494.476, 1271009638.00, -15.3622307581,   0.2756328065,   0.4477493282,     1.360,    52.716,    -0.089
  33 18 34.75871,  -97 33 13.42779,     3494.353,   33 18 34.75871,  -97 33 13.42779,     3494.353, 1271009639.00, -15.2945415242,   0.2657149071,  -0.1146889619,     1.361,    52.740,    -0.129
  33 18 36.46994,  -97 33 13.37645,     3494.245,   33 18 36.46994,  -97 33 13.37645,     3494.245, 1271009640.00, -15.4004470430,   0.3759978235,  -0.1992689916,     1.300,    52.753,    -0.080
  33 18 38.18096,  -97 33 13.32757,     3494.214,   33 18 38.18096,  -97 33 13.32757,     3494.214, 1271009641.00, -15.6222390055,   0.3990020790,  -0.1629033603,     1.233,    52.736,     0.010
  33 18 39.89141,  -97 33 13.28138,     3494.237,   33 18 39.89141,  -97 33 13.28138,     3494.237, 1271009642.00, -15.8078028466,   0.3544546104,   0.1004566902,     1.169,    52.716,     0.025
  33 18 41.60148,  -97 33 13.23676,     3494.271,   33 18 41.60148,  -97 33 13.23676,     3494.271, 1271009643.00, -15.9018366800,   0.3706292089,   0.5461777478,     1.158,    52.714,     0.042
  33 18 43.31164,  -97 33 13.19127,     3494.289,   33 18 43.31164,  -97 33 13.19127,     3494.289, 1271009644.00, -15.8484026360,   0.2722466259,   0.9006037103,     1.210,    52.725,    -0.008
  33 18 45.02245,  -97 33 13.14287,     3494.275,   33 18 45.02245,  -97 33 13.14287,     3494.275, 1271009645.00, -15.5772045228,   0.3128636040,   1.0775961028,     1.310,    52.744,     0.023
  33 18 46.73415,  -97 33 13.08946,     3494.257,   33 18 46.73415,  -97 33 13.08946,     3494.257, 1271009646.00, -15.2659681189,   0.2401151528,   0.7664972087,     1.444,    52.786,    -0.043
  33 18 48.44687,  -97 33 13.03189,     3494.229,   33 18 48.44687,  -97 33 13.03189,     3494.229, 1271009647.00, -14.9427225196,   0.2157930944,   0.0986747915,     1.517,    52.800,    -0.011
  33 18 50.15995,  -97 33 12.97291,     3494.180,   33 18 50.15995,  -97 33 12.97291,     3494.180, 1271009648.00, -14.9754040323,   0.2006670086,  -0.5783435984,     1.512,    52.808,    -0.058
  33 18 51.87243,  -97 33 12.91726,     3494.160,   33 18 51.87243,  -97 33 12.91726,     3494.160, 1271009649.00, -15.2310119638,   0.2954342279,  -1.2184921542,     1.352,    52.768,     0.030
  33 18 53.58292,  -97 33 12.86944,     3494.223,   33 18 53.58292,  -97 33 12.86944,     3494.223, 1271009650.00, -15.6636982316,   0.4183852412,  -1.2302664369,     1.125,    52.682,     0.102
  33 18 55.29051,  -97 33 12.83040,     3494.372,   33 18 55.29051,  -97 33 12.83040,     3494.372, 1271009651.00, -16.0426124102,   0.4797604802,  -0.8644156959,     0.910,    52.592,     0.181
  33 18 56.99519,  -97 33 12.79866,     3494.543,   33 18 56.99519,  -97 33 12.79866,     3494.543, 1271009652.00, -16.2000898602,   0.5034007188,  -0.2460681843,     0.759,    52.516,     0.158
  33 18 58.69787,  -97 33 12.77041,     3494.718,   33 18 58.69787,  -97 33 12.77041,     3494.718, 1271009653.00, -16.2995266856,   0.4579995431,   0.3634271295,     0.725,    52.459,     0.161
  33 19 00.39941,  -97 33 12.74187,     3494.853,   33 19 00.39941,  -97 33 12.74187,     3494.853, 1271009654.00, -16.1822307657,   0.4877704302,   0.6213669992,     0.764,    52.442,     0.128
  33 19 02.10021,  -97 33 12.71088,     3494.988,   33 19 02.10021,  -97 33 12.71088,     3494.988, 1271009655.00, -16.0567186311,   0.4579193290,   0.5870353682,     0.835,    52.414,     0.138
  33 19 03.80042,  -97 33 12.67711,     3495.091,   33 19 03.80042,  -97 33 12.67711,     3495.091, 1271009656.00, -15.9189566589,   0.4369949103,   0.5017276820,     0.908,    52.402,     0.091
  33 19 05.50003,  -97 33 12.64062,     3495.204,   33 19 05.50003,  -97 33 12.64062,     3495.204, 1271009657.00, -15.8827228079,   0.4441912603,   0.3218647710,     0.974,    52.380,     0.134
  33 19 07.19876,  -97 33 12.60287,     3495.288,   33 19 07.19876,  -97 33 12.60287,     3495.288, 1271009658.00, -15.8028009251,   0.3378674822,   0.0228094498,     0.971,    52.347,     0.025
  33 19 08.89666,  -97 33 12.56549,     3495.289,   33 19 08.89666,  -97 33 12.56549,     3495.289, 1271009659.00, -15.7304248964,   0.3925276559,  -0.1061576203,     0.958,    52.323,     0.003
  33 19 10.59348,  -97 33 12.52901,     3495.334,   33 19 10.59348,  -97 33 12.52901,     3495.334, 1271009660.00, -15.7974896063,   0.4355052201,  -0.2774605419,     0.919,    52.289,     0.083
  33 19 12.28861,  -97 33 12.49473,     3495.433,   33 19 12.28861,  -97 33 12.49473,     3495.433, 1271009661.00, -15.9420124805,   0.4962100985,  -0.3114770462,     0.854,    52.215,     0.115
  33 19 13.98150,  -97 33 12.46310,     3495.561,   33 19 13.98150,  -97 33 12.46310,     3495.561, 1271009662.00, -16.1014895532,   0.4494739311,  -0.0569348161,     0.789,    52.155,     0.131
  33 19 15.67256,  -97 33 12.43356,     3495.665,   33 19 15.67256,  -97 33 12.43356,     3495.665, 1271009663.00, -16.1266767779,   0.4148271733,  -0.4094413700,     0.724,    52.105,     0.074
  33 19 17.36186,  -97 33 12.40747,     3495.708,   33 19 17.36186,  -97 33 12.40747,     3495.708, 1271009664.00, -16.1267627216,   0.4872834160,   0.2823306831,     0.661,    52.049,     0.011
  33 19 19.05022,  -97 33 12.38149,     3495.720,   33 19 19.05022,  -97 33 12.38149,     3495.720, 1271009665.00, -16.0356280547,   0.4011850482,   0.4074302881,     0.683,    52.041,     0.008
  33 19 20.73818,  -97 33 12.35412,     3495.776,   33 19 20.73818,  -97 33 12.35412,     3495.776, 1271009666.00, -15.9267603440,   0.5633492929,   0.3323155212,     0.729,    52.017,     0.131
  33 19 22.42501,  -97 33 12.32535,     3496.005,   33 19 22.42501,  -97 33 12.32535,     3496.005, 1271009667.00, -15.8030415673,   0.5392392289,   0.3434480911,     0.770,    51.974,     0.274
  33 19 24.11074,  -97 33 12.29456,     3496.238,   33 19 24.11074,  -97 33 12.29456,     3496.238, 1271009668.00, -15.7598921158,   0.4953850392,  -0.0146619900,     0.804,    51.949,     0.208
  33 19 25.79506,  -97 33 12.26366,     3496.444,   33 19 25.79506,  -97 33 12.26366,     3496.444, 1271009669.00, -15.7919892115,   0.5071364036,  -0.4053962879,     0.781,    51.891,     0.236
  33 19 27.47751,  -97 33 12.23460,     3496.712,   33 19 27.47751,  -97 33 12.23460,     3496.712, 1271009670.00, -15.9904446030,   0.5354806258,  -0.5679043074,     0.713,    51.828,     0.306
  33 19 29.15764,  -97 33 12.20907,     3497.054,   33 19 29.15764,  -97 33 12.20907,     3497.054, 1271009671.00, -16.2251911412,   0.5571384304,  -0.1525442834,     0.625,    51.754,     0.358
  33 19 30.83537,  -97 33 12.18522,     3497.410,   33 19 30.83537,  -97 33 12.18522,     3497.410, 1271009672.00, -16.3659324940,   0.5065749050,   0.2395593837,     0.614,    51.679,     0.315
  33 19 32.51114,  -97 33 12.16106,     3497.719,   33 19 32.51114,  -97 33 12.16106,     3497.719, 1271009673.00, -16.3004548772,   0.4059520570,   0.3425829249,     0.634,    51.634,     0.269
  33 19 34.18611,  -97 33 12.13593,     3497.936,   33 19 34.18611,  -97 33 12.13593,     3497.936, 1271009674.00, -16.1950936682,   0.3485073085,   0.6848793708,     0.685,    51.633,     0.186
  33 19 35.86130,  -97 33 12.10737,     3498.113,   33 19 35.86130,  -97 33 12.10737,     3498.113, 1271009675.00, -16.2193355125,   0.3173727819,   0.6433972265,     0.788,    51.643,     0.172
  33 19 37.53696,  -97 33 12.07574,     3498.231,   33 19 37.53696,  -97 33 12.07574,     3498.231, 1271009676.00, -16.1740317397,   0.2763661925,   0.8369595584,     0.856,    51.670,     0.074
  33 19 39.21363,  -97 33 12.04049,     3498.266,   33 19 39.21363,  -97 33 12.04049,     3498.266, 1271009677.00, -16.1039131647,   0.1183157847,   0.9405331390,     0.958,    51.704,    -0.020
  33 19 40.89202,  -97 33 12.00109,     3498.200,   33 19 40.89202,  -97 33 12.00109,     3498.200, 1271009678.00, -15.8531066195,   0.0728286653,   1.2828181258,     1.089,    51.768,    -0.095
  33 19 42.57276,  -97 33 11.95468,     3498.061,   33 19 42.57276,  -97 33 11.95468,     3498.061, 1271009679.00, -15.7299436118,  -0.0531074580,   0.9779300943,     1.295,    51.850,    -0.189
  33 19 44.25585,  -97 33 11.90340,     3497.884,   33 19 44.25585,  -97 33 11.90340,     3497.884, 1271009680.00, -15.5379168068,  -0.1055502850,   0.2700350088,     1.331,    51.907,    -0.216
  33 19 45.94087,  -97 33 11.85120,     3497.648,   33 19 45.94087,  -97 33 11.85120,     3497.648, 1271009681.00, -15.3677827191,  -0.0347613494,   0.6312447916,     1.390,    51.974,    -0.229
  33 19 47.62822,  -97 33 11.79571,     3497.394,   33 19 47.62822,  -97 33 11.79571,     3497.394, 1271009682.00, -15.4027388742,  -0.1309609632,   0.2948097039,     1.461,    52.056,    -0.263
  33 19 49.31791,  -97 33 11.73935,     3497.134,   33 19 49.31791,  -97 33 11.73935,     3497.134, 1271009683.00, -15.4584475606,  -0.0442438009,  -0.0354947354,     1.444,    52.111,    -0.224
  33 19 51.00914,  -97 33 11.68459,     3496.969,   33 19 51.00914,  -97 33 11.68459,     3496.969, 1271009684.00, -15.5486024697,   0.0500593226,  -0.1157718521,     1.395,    52.152,    -0.142
  33 19 52.70114,  -97 33 11.63176,     3496.838,   33 19 52.70114,  -97 33 11.63176,     3496.838, 1271009685.00, -15.5293682765,  -0.0108518206,   0.3008486791,     1.359,    52.170,    -0.177
  33 19 54.39397,  -97 33 11.57879,     3496.655,   33 19 54.39397,  -97 33 11.57879,     3496.655, 1271009686.00, -15.3729507984,   0.0883443624,   0.5703852146,     1.388,    52.189,    -0.151
  33 19 56.08769,  -97 33 11.52303,     3496.558,   33 19 56.08769,  -97 33 11.52303,     3496.558, 1271009687.00, -15.1061071645,  -0.0704909975,   1.1284289184,     1.550,    52.254,    -0.108
  33 19 57.78395,  -97 33 11.46116,     3496.424,   33 19 57.78395,  -97 33 11.46116,     3496.424, 1271009688.00, -15.0590787887,  -0.1195934806,   0.2239176359,     1.616,    52.314,    -0.170
  33 19 59.48191,  -97 33 11.39864,     3496.257,   33 19 59.48191,  -97 33 11.39864,     3496.257, 1271009689.00, -14.9301976622,  -0.0109778714,  -0.3852339031,     1.609,    52.357,    -0.136
  33 20 01.18067,  -97 33 11.33752,     3496.187,   33 20 01.18067,  -97 33 11.33752,     3496.187, 1271009690.00, -15.1813422526,   0.1224811879,  -0.2668608227,     1.559,    52.367,    -0.017
  33 20 02.87884,  -97 33 11.27864,     3496.202,   33 20 02.87884,  -97 33 11.27864,     3496.202, 1271009691.00, -15.2814838160,   0.0763294375,  -0.5356811610,     1.492,    52.331,     0.029
  33 20 04.57601,  -97 33 11.22361,     3496.231,   33 20 04.57601,  -97 33 11.22361,     3496.231, 1271009692.00, -15.3402005309,   0.1753594628,  -0.7138251986,     1.357,    52.294,     0.065
  33 20 06.27154,  -97 33 11.17292,     3496.335,   33 20 06.27154,  -97 33 11.17292,     3496.335, 1271009693.00, -15.3540603799,   0.1893109851,  -0.2300883914,     1.281,    52.248,     0.112
  33 20 07.96595,  -97 33 11.12370,     3496.501,   33 20 07.96595,  -97 33 11.12370,     3496.501, 1271009694.00, -15.5365875447,   0.2606499602,   0.0050935948,     1.271,    52.214,     0.239
  33 20 09.65924,  -97 33 11.07507,     3496.729,   33 20 09.65924,  -97 33 11.07507,     3496.729, 1271009695.00, -15.5865150870,   0.2059955161,  -0.1768778009,     1.239,    52.177,     0.164
  33 20 11.35138,  -97 33 11.02740,     3496.855,   33 20 11.35138,  -97 33 11.02740,     3496.855, 1271009696.00, -15.5523725320,   0.2255219177,   0.4237653149,     1.252,    52.157,     0.102
  33 20 13.04371,  -97 33 10.97781,     3496.916,   33 20 13.04371,  -97 33 10.97781,     3496.916, 1271009697.00, -15.6512077516,   0.0906877598,   0.5969017014,     1.314,    52.174,     0.021
  33 20 14.73655,  -97 33 10.92628,     3496.953,   33 20 14.73655,  -97 33 10.92628,     3496.953, 1271009698.00, -15.3619213609,   0.2390551809,   0.6411913390,     1.356,    52.178,     0.083
  33 20 16.42995,  -97 33 10.87081,     3497.093,   33 20 16.42995,  -97 33 10.87081,     3497.093, 1271009699.00, -15.1272779550,   0.1049143019,   0.7393103614,     1.520,    52.221,     0.106
  33 20 18.12475,  -97 33 10.81106,     3497.172,   33 20 18.12475,  -97 33 10.81106,     3497.172, 1271009700.00, -15.0010782711,   0.1072233218,   0.0918336754,     1.547,    52.248,     0.041
  33 20 19.81985,  -97 33 10.75181,     3497.217,   33 20 19.81985,  -97 33 10.75181,     3497.217, 1271009701.00, -14.8151993032,   0.1090166797,  -0.4505396326,     1.516,    52.260,     0.072
  33 20 21.51475,  -97 33 10.69442,     3497.328,   33 20 21.51475,  -97 33 10.69442,     3497.328, 1271009702.00, -14.9946611438,   0.2066830654,  -0.5206696667,     1.452,    52.236,     0.149
  33 20 23.20869,  -97 33 10.64006,     3497.512,   33 20 23.20869,  -97 33 10.64006,     3497.512, 1271009703.00, -15.2123335397,   0.2473573393,  -0.7105364209,     1.351,    52.186,     0.250
  33 20 24.90091,  -97 33 10.59025,     3497.800,   33 20 24.90091,  -97 33 10.59025,     3497.800, 1271009704.00, -15.3637261779,   0.2405849782,  -1.1277413690,     1.213,    52.142,     0.295
  33 20 26.59093,  -97 33 10.54784,     3498.131,   33 20 26.59093,  -97 33 10.54784,     3498.131, 1271009705.00, -15.4328478063,   0.3187249623,  -1.5035443868,     0.994,    52.052,     0.346
  33 20 28.27825,  -97 33 10.51297,     3498.508,   33 20 28.27825,  -97 33 10.51297,     3498.508, 1271009706.00, -16.0459814021,   0.4983701494,  -0.8815643227,     0.821,    51.966,     0.403
  33 20 29.96222,  -97 33 10.48488,     3498.974,   33 20 29.96222,  -97 33 10.48488,     3498.974, 1271009707.00, -16.4240304144,   0.2978979464,  -0.7189302526,     0.639,    51.871,     0.460
  33 20 31.64374,  -97 33 10.46351,     3499.321,   33 20 31.64374,  -97 33 10.46351,     3499.321, 1271009708.00, -16.2866580535,   0.3647621211,   0.3518820299,     0.527,    51.815,     0.328
  33 20 33.32494,  -97 33 10.44135,     3499.616,   33 20 33.32494,  -97 33 10.44135,     3499.616, 1271009709.00, -16.2595514202,   0.3027967356,   1.3654157216,     0.643,    51.841,     0.237
  33 20 35.00774,  -97 33 10.41234,     3499.710,   33 20 35.00774,  -97 33 10.41234,     3499.710, 1271009710.00, -15.9810767430,   0.0701529524,   1.4984164146,     0.854,    51.909,    -0.027
  33 20 36.69328,  -97 33 10.37595,     3499.623,   33 20 36.69328,  -97 33 10.37595,     3499.623, 1271009711.00, -15.4799678554,   0.0438599192,   0.9071239700,     1.012,    52.001,    -0.127
  33 20 38.38166,  -97 33 10.33405,     3499.491,   33 20 38.38166,  -97 33 10.33405,     3499.491, 1271009712.00, -15.1114872382,   0.1119616827,   0.7051219697,     1.158,    52.086,    -0.112
  33 20 40.07212,  -97 33 10.28666,     3499.422,   33 20 40.07212,  -97 33 10.28666,     3499.422, 1271009713.00, -15.0706124291,   0.1551283230,  -0.0427311924,     1.274,    52.113,    -0.051
  33 20 41.76274,  -97 33 10.23698,     3499.366,   33 20 41.76274,  -97 33 10.23698,     3499.366, 1271009714.00, -15.1759278014,   0.0389038343,  -0.9080636208,     1.258,    52.114,    -0.022
  33 20 43.45323,  -97 33 10.19213,     3499.296,   33 20 43.45323,  -97 33 10.19213,     3499.296, 1271009715.00, -15.2102594325,  -0.0452464771,  -1.9800046301,     1.031,    52.103,    -0.113
  33 20 45.14282,  -97 33 10.15808,     3499.186,   33 20 45.14282,  -97 33 10.15808,     3499.186, 1271009716.00, -15.5295688117,   0.2079206543,  -1.8912190902,     0.736,    52.054,    -0.067
  33 20 46.83080,  -97 33 10.13527,     3499.203,   33 20 46.83080,  -97 33 10.13527,     3499.203, 1271009717.00, -16.2057163058,   0.1953499602,  -1.4879370165,     0.458,    52.018,     0.065
  33 20 48.51678,  -97 33 10.12329,     3499.258,   33 20 48.51678,  -97 33 10.12329,     3499.258, 1271009718.00, -16.7210345467,   0.3935704391,  -0.6367623752,     0.173,    51.923,     0.139
  33 20 50.20072,  -97 33 10.11768,     3499.465,   33 20 50.20072,  -97 33 10.11768,     3499.465, 1271009719.00, -16.9413425485,   0.4718708513,   0.5210993851,     0.141,    51.891,     0.242
  33 20 51.88340,  -97 33 10.11091,     3499.666,   33 20 51.88340,  -97 33 10.11091,     3499.666, 1271009720.00, -16.6451290980,   0.3762900320,   1.6036744911,     0.244,    51.865,     0.248
  33 20 53.56674,  -97 33 10.09516,     3499.900,   33 20 53.56674,  -97 33 10.09516,     3499.900, 1271009721.00, -16.2554032058,   0.3034327187,   2.5706209845,     0.591,    51.916,     0.130
  33 20 55.25243,  -97 33 10.06532,     3499.836,   33 20 55.25243,  -97 33 10.06532,     3499.836, 1271009722.00, -15.6081385142,   0.0734646485,   2.2734736128,     0.948,    52.013,    -0.236
  33 20 56.94161,  -97 33 10.02046,     3499.593,   33 20 56.94161,  -97 33 10.02046,     3499.593, 1271009723.00, -15.0757461309,   0.0316559182,   1.6638178709,     1.339,    52.124,    -0.238
  33 20 58.63428,  -97 33 09.96464,     3499.392,   33 20 58.63428,  -97 33 09.96464,     3499.392, 1271009724.00, -14.5334644962,  -0.1429529699,  -0.2612057292,     1.471,    52.212,    -0.243
  33 21 00.32972,  -97 33 09.90608,     3499.126,   33 21 00.32972,  -97 33 09.90608,     3499.126, 1271009725.00, -14.6014745864,   0.0323262788,  -1.0679245752,     1.546,    52.306,    -0.185
  33 21 02.02614,  -97 33 09.85133,     3498.838,   33 21 02.02614,  -97 33 09.85133,     3498.838, 1271009726.00, -15.1152573005,  -0.0263388698,  -3.0587752964,     1.212,    52.275,    -0.407
  33 21 03.72098,  -97 33 09.81540,     3498.518,   33 21 03.72098,  -97 33 09.81540,     3498.518, 1271009727.00, -15.5182815432,   0.0159053084,  -3.4803289941,     0.658,    52.213,    -0.325
  33 21 05.41338,  -97 33 09.80036,     3498.236,   33 21 05.41338,  -97 33 09.80036,     3498.236, 1271009728.00, -16.3544618790,   0.1425690882,  -2.8530032338,     0.134,    52.131,    -0.217
  33 21 07.10317,  -97 33 09.80383,     3498.058,   33 21 07.10317,  -97 33 09.80383,     3498.058, 1271009729.00, -17.3389351513,   0.1320323943,  -1.6902254956,    -0.285,    52.054,    -0.196
  33 21 08.79051,  -97 33 09.82125,     3497.932,   33 21 08.79051,  -97 33 09.82125,     3497.932, 1271009730.00, -17.8261440828,   0.3830623931,   0.5914987094,    -0.516,    52.012,     0.017
  33 21 10.47807,  -97 33 09.83941,     3497.948,   33 21 10.47807,  -97 33 09.83941,     3497.948, 1271009731.00, -17.8260237617,   0.3750753614,   1.6788179059,    -0.396,    52.031,    -0.023
  33 21 12.16716,  -97 33 09.85069,     3497.832,   33 21 12.16716,  -97 33 09.85069,     3497.832, 1271009732.00, -17.3097773291,   0.2045172850,   2.7872849747,    -0.160,    52.110,    -0.189
  33 21 13.86026,  -97 33 09.84791,     3497.628,   33 21 13.86026,  -97 33 09.84791,     3497.628, 1271009733.00, -16.5666281505,   0.1952525574,   3.3444692417,     0.309,    52.263,    -0.278
  33 21 15.55840,  -97 33 09.82622,     3497.336,   33 21 15.55840,  -97 33 09.82622,     3497.336, 1271009734.00, -15.6271549834,   0.1654530225,   2.9552762002,     0.795,    52.412,    -0.295
  33 21 17.26167,  -97 33 09.78592,     3496.970,   33 21 17.26167,  -97 33 09.78592,     3496.970, 1271009735.00, -14.8687880458,   0.0841846888,   1.9144754471,     1.245,    52.583,    -0.407
  33 21 18.96935,  -97 33 09.73296,     3496.562,   33 21 18.96935,  -97 33 09.73296,     3496.562, 1271009736.00, -14.3548964697,   0.0202712468,  -0.1134169955,     1.427,    52.683,    -0.385
  33 21 20.67949,  -97 33 09.67818,     3496.193,   33 21 20.67949,  -97 33 09.67818,     3496.193, 1271009737.00, -14.3535442893,   0.1004566902,  -1.7907681295,     1.344,    52.724,    -0.322
  33 21 22.38944,  -97 33 09.63166,     3495.956,   33 21 22.38944,  -97 33 09.63166,     3495.956, 1271009738.00, -14.9132438411,   0.2674395100,  -2.7148230024,     1.038,    52.686,    -0.149
  33 21 24.09638,  -97 33 09.60036,     3495.857,   33 21 24.09638,  -97 33 09.60036,     3495.857, 1271009739.00, -15.7248213691,   0.3304247605,  -3.0079424808,     0.590,    52.550,    -0.054
  33 21 25.79838,  -97 33 09.58871,     3495.894,   33 21 25.79838,  -97 33 09.58871,     3495.894, 1271009740.00, -16.4485014419,   0.2698917694,  -2.6075309256,     0.050,    52.387,     0.060
  33 21 27.49578,  -97 33 09.59383,     3495.981,   33 21 27.49578,  -97 33 09.59383,     3495.981, 1271009741.00, -17.1402620358,   0.4630644900,  -1.0144676129,    -0.251,    52.275,     0.116
  33 21 29.18969,  -97 33 09.60747,     3496.141,   33 21 29.18969,  -97 33 09.60747,     3496.141, 1271009742.00, -17.2694812074,   0.4031388342,   0.2232530049,    -0.400,    52.183,     0.148
  33 21 30.88247,  -97 33 09.62164,     3496.224,   33 21 30.88247,  -97 33 09.62164,     3496.224, 1271009743.00, -17.2088737318,   0.4762711672,   1.4710748686,    -0.298,    52.184,     0.015
  33 21 32.57592,  -97 33 09.62906,     3496.185,   33 21 32.57592,  -97 33 09.62906,     3496.185, 1271009744.00, -16.8293923249,   0.1748552599,   1.5042835024,    -0.111,    52.222,    -0.099
  33 21 34.27138,  -97 33 09.62854,     3496.000,   33 21 34.27138,  -97 33 09.62854,     3496.000, 1271009745.00, -16.1624809105,   0.1656822056,   1.9020766404,     0.165,    52.310,    -0.234
  33 21 35.97030,  -97 33 09.61573,     3495.856,   33 21 35.97030,  -97 33 09.61573,     3495.856, 1271009746.00, -15.7295654597,   0.1725576992,   2.1273865637,     0.507,    52.423,    -0.093
  33 21 37.67274,  -97 33 09.58910,     3495.747,   33 21 37.67274,  -97 33 09.58910,     3495.747, 1271009747.00, -15.6156041542,   0.0408919978,  -0.0103819952,     0.770,    52.498,    -0.193
  33 21 39.37603,  -97 33 09.56023,     3495.559,   33 21 39.37603,  -97 33 09.56023,     3495.559, 1271009748.00, -15.7461124808,   0.1120304377,  -1.2213913206,     0.681,    52.494,    -0.164
  33 21 41.07837,  -97 33 09.53718,     3495.348,   33 21 41.07837,  -97 33 09.53718,     3495.348, 1271009749.00, -15.8398770240,   0.1412570148,  -1.4817662610,     0.509,    52.456,    -0.256
  33 21 42.77898,  -97 33 09.52160,     3495.137,   33 21 42.77898,  -97 33 09.52160,     3495.137, 1271009750.00, -16.0781816301,   0.3294851097,  -1.6401661731,     0.315,    52.384,    -0.204
  33 21 44.47656,  -97 33 09.51511,     3494.967,   33 21 44.47656,  -97 33 09.51511,     3494.967, 1271009751.00, -16.6535687663,   0.5259351489,  -1.9630794568,     0.023,    52.265,    -0.094
  33 21 46.16916,  -97 33 09.51997,     3495.079,   33 21 46.16916,  -97 33 09.51997,     3495.079, 1271009752.00, -17.2973957111,   0.6765485645,  -0.8622671042,    -0.234,    52.095,     0.236
  33 21 47.85566,  -97 33 09.53152,     3495.264,   33 21 47.85566,  -97 33 09.53152,     3495.264, 1271009753.00, -17.3848004228,   0.8843947343,   0.4452569618,    -0.294,    51.892,     0.123
  33 21 49.53726,  -97 33 09.54067,     3495.256,   33 21 49.53726,  -97 33 09.54067,     3495.256, 1271009754.00, -17.1596451980,   0.6206565316,   2.0089046213,    -0.124,    51.807,    -0.226
  33 21 51.21840,  -97 33 09.53981,     3495.201,   33 21 51.21840,  -97 33 09.53981,     3495.201, 1271009755.00, -16.5579936765,   0.3742961388,   2.4200648647,     0.148,    51.853,     0.201
  33 21 52.90332,  -97 33 09.52479,     3495.434,   33 21 52.90332,  -97 33 09.52479,     3495.434, 1271009756.00, -16.0855498674,   0.1391886372,   2.8029038042,     0.613,    52.020,     0.078
  33 21 54.59228,  -97 33 09.49715,     3495.349,   33 21 54.59228,  -97 33 09.49715,     3495.349, 1271009757.00, -14.9072793504,   0.3091966741,   1.1746895307,     0.807,    52.092,    -0.142
  33 21 56.28411,  -97 33 09.45953,     3495.252,   33 21 56.28411,  -97 33 09.45953,     3495.252, 1271009758.00, -14.7175959428,   0.1775195137,   1.3626254171,     1.138,    52.213,    -0.098
  33 21 57.97985,  -97 33 09.41127,     3495.048,   33 21 57.97985,  -97 33 09.41127,     3495.048, 1271009759.00, -15.0412540717,   0.0613007545,   0.2193454327,     1.320,    52.324,    -0.323
  33 21 59.67796,  -97 33 09.36147,     3494.677,   33 21 59.67796,  -97 33 09.36147,     3494.677, 1271009760.00, -15.3027462798,   0.1894484950,  -1.7385143786,     1.189,    52.348,    -0.355
  33 22 01.37521,  -97 33 09.32244,     3494.336,   33 22 01.37521,  -97 33 09.32244,     3494.336, 1271009761.00, -15.5007719529,   0.2756328065,  -2.8291739191,     0.800,    52.275,    -0.336
  33 22 03.06948,  -97 33 09.29929,     3494.067,   33 22 03.06948,  -97 33 09.29929,     3494.067, 1271009762.00, -16.1329621249,   0.4087423615,  -1.9076228718,     0.433,    52.185,    -0.193
  33 22 04.76034,  -97 33 09.28912,     3493.928,   33 22 04.76034,  -97 33 09.28912,     3493.928, 1271009763.00, -16.7703261058,   0.5306276732,  -1.5292014369,     0.098,    52.061,    -0.072
  33 22 06.44710,  -97 33 09.29056,     3493.917,   33 22 06.44710,  -97 33 09.29056,     3493.917, 1271009764.00, -16.9822116280,   0.6376905668,  -0.6096385532,    -0.138,    51.934,     0.062
  33 22 08.13064,  -97 33 09.29673,     3493.981,   33 22 08.13064,  -97 33 09.29673,     3493.981, 1271009765.00, -17.1286768292,   0.6446863815,   0.9339383948,    -0.135,    51.873,     0.061
  33 22 09.81279,  -97 33 09.29845,     3494.062,   33 22 09.81279,  -97 33 09.29845,     3494.062, 1271009766.00, -16.9832486816,   0.5852993060,   1.7467764300,     0.069,    51.841,     0.062
  33 22 11.49501,  -97 33 09.29025,     3494.100,   33 22 11.49501,  -97 33 09.29025,     3494.100, 1271009767.00, -16.5946916233,   0.4904747909,   1.8048628913,     0.352,    51.866,     0.035
  33 22 13.17813,  -97 33 09.27063,     3494.116,   33 22 13.17813,  -97 33 09.27063,     3494.116, 1271009768.00, -16.1123184556,   0.4946974899,   1.9846856953,     0.672,    51.901,     0.061
  33 22 14.86231,  -97 33 09.23733,     3494.182,   33 22 14.86231,  -97 33 09.23733,     3494.182, 1271009769.00, -15.8434981173,   0.4477149507,   1.6661956457,     1.053,    51.931,     0.048
  33 22 16.54704,  -97 33 09.19046,     3494.150,   33 22 16.54704,  -97 33 09.19046,     3494.150, 1271009770.00, -16.0017605194,   0.3592273488,   0.4680721412,     1.319,    51.935,     0.004
  33 22 18.23084,  -97 33 09.13988,     3494.111,   33 22 18.23084,  -97 33 09.13988,     3494.111, 1271009771.00, -15.8838744531,   0.3388701584,   0.0357468368,     1.286,    51.870,    -0.111
  33 22 19.91250,  -97 33 09.09043,     3494.058,   33 22 19.91250,  -97 33 09.09043,     3494.058, 1271009772.00, -15.5395497365,   0.4721114936,   0.2368206455,     1.288,    51.802,    -0.016
  33 22 21.59282,  -97 33 09.03923,     3494.097,   33 22 21.59282,  -97 33 09.03923,     3494.097, 1271009773.00, -15.4470858075,   0.2469161618,   0.1001472930,     1.342,    51.790,     0.009
  33 22 23.27274,  -97 33 08.98659,     3494.102,   33 22 23.27274,  -97 33 08.98659,     3494.102, 1271009774.00, -15.4860068306,   0.3213720273,   0.2550120555,     1.390,    51.779,    -0.030
  33 22 24.95217,  -97 33 08.93267,     3494.107,   33 22 24.95217,  -97 33 08.93267,     3494.107, 1271009775.00, -15.6176725319,   0.3807361844,  -0.4837482664,     1.350,    51.744,     0.059
  33 22 26.63015,  -97 33 08.88208,     3494.160,   33 22 26.63015,  -97 33 08.88208,     3494.160, 1271009776.00, -15.4386232209,   0.4158814156,  -0.6820031227,     1.272,    51.709,     0.071
  33 22 28.30656,  -97 33 08.83477,     3494.270,   33 22 28.30656,  -97 33 08.83477,     3494.270, 1271009777.00, -15.7208851491,   0.5084771249,  -0.8394404656,     1.173,    51.639,     0.159
  33 22 29.98031,  -97 33 08.79201,     3494.454,   33 22 29.98031,  -97 33 08.79201,     3494.454, 1271009778.00, -16.0010672405,   0.6306259972,  -1.2016643837,     1.017,    51.544,     0.228
  33 22 31.65059,  -97 33 08.75685,     3494.758,   33 22 31.65059,  -97 33 08.75685,     3494.758, 1271009779.00, -16.3403327397,   0.5790884435,  -1.2674456682,     0.803,    51.438,     0.358
  33 22 33.31739,  -97 33 08.73032,     3495.085,   33 22 33.31739,  -97 33 08.73032,     3495.085, 1271009780.00, -16.5534959578,   0.6546959542,  -0.6289930675,     0.602,    51.330,     0.321
  33 22 34.98132,  -97 33 08.70874,     3495.433,   33 22 34.98132,  -97 33 08.70874,     3495.433, 1271009781.00, -16.6893385215,   0.6955822224,   0.0686919101,     0.537,    51.263,     0.359
  33 22 36.64310,  -97 33 08.68830,     3495.790,   33 22 36.64310,  -97 33 08.68830,     3495.790, 1271009782.00, -16.6310687137,   0.6802212240,  -0.4433833898,     0.502,    51.187,     0.373
  33 22 38.30286,  -97 33 08.67043,     3496.137,   33 22 38.30286,  -97 33 08.67043,     3496.137, 1271009783.00, -16.5374244917,   0.5480284015,  -0.5824631650,     0.411,    51.139,     0.311
  33 22 39.96120,  -97 33 08.65584,     3496.418,   33 22 39.96120,  -97 33 08.65584,     3496.418, 1271009784.00, -16.6651883504,   0.6068425191,  -0.1733942175,     0.368,    51.107,     0.285
  33 22 41.61857,  -97 33 08.64223,     3496.727,   33 22 41.61857,  -97 33 08.64223,     3496.727, 1271009785.00, -17.0313656773,   0.5924956559,  -0.3411906374,     0.314,    51.067,     0.324
  33 22 43.27452,  -97 33 08.63258,     3496.975,   33 22 43.27452,  -97 33 08.63258,     3496.975, 1271009786.00, -16.9088615711,   0.5449458885,  -0.3661945156,     0.190,    51.033,     0.208
  33 22 44.92971,  -97 33 08.62624,     3497.217,   33 22 44.92971,  -97 33 08.62624,     3497.217, 1271009787.00, -16.8633629926,   0.5934066588,   0.3455565758,     0.152,    51.018,     0.253
  33 22 46.58539,  -97 33 08.61896,     3497.458,   33 22 46.58539,  -97 33 08.61896,     3497.458, 1271009788.00, -16.7824957294,   0.5239699036,   0.5579520305,     0.220,    51.053,     0.213
  33 22 48.24226,  -97 33 08.60885,     3497.662,   33 22 48.24226,  -97 33 08.60885,     3497.662, 1271009789.00, -16.8169190337,   0.4715843724,   0.3964466872,     0.292,    51.091,     0.179
  33 22 49.89996,  -97 33 08.59733,     3497.843,   33 22 49.89996,  -97 33 08.59733,     3497.843, 1271009790.00, -16.6701616241,   0.4319013155,  -0.1745802402,     0.291,    51.102,     0.188
  33 22 51.55802,  -97 33 08.58640,     3498.035,   33 22 51.55802,  -97 33 08.58640,     3498.035, 1271009791.00, -16.6950852882,   0.4859770723,  -0.2231957091,     0.263,    51.119,     0.208
  33 22 53.21614,  -97 33 08.57702,     3498.265,   33 22 53.21614,  -97 33 08.57702,     3498.265, 1271009792.00, -16.8937584036,   0.4173424580,  -0.1532662102,     0.223,    51.112,     0.219
  33 22 54.87442,  -97 33 08.56994,     3498.431,   33 22 54.87442,  -97 33 08.56994,     3498.431, 1271009793.00, -16.9469346166,   0.3462097477,  -0.1901245852,     0.148,    51.124,     0.134
  33 22 56.53324,  -97 33 08.56456,     3498.585,   33 22 56.53324,  -97 33 08.56456,     3498.585, 1271009794.00, -17.2004512522,   0.3295882421,   0.3730929275,     0.133,    51.151,     0.167
  33 22 58.19305,  -97 33 08.55956,     3498.687,   33 22 58.19305,  -97 33 08.55956,     3498.687, 1271009795.00, -17.1814233238,   0.3005450114,   0.6390656655,     0.139,    51.184,     0.081
  33 22 59.85462,  -97 33 08.55329,     3498.717,   33 22 59.85462,  -97 33 08.55329,     3498.717, 1271009796.00, -17.0022995283,   0.2024317186,   0.7681129497,     0.184,    51.260,    -0.045
  33 23 01.51864,  -97 33 08.54413,     3498.679,   33 23 01.51864,  -97 33 08.54413,     3498.679, 1271009797.00, -16.7383550608,   0.1624621828,   1.2173978048,     0.301,    51.335,    -0.035
  33 23 03.18593,  -97 33 08.52914,     3498.612,   33 23 03.18593,  -97 33 08.52914,     3498.612, 1271009798.00, -16.4909805328,   0.0575765288,   1.2067694377,     0.475,    51.452,    -0.096
  33 23 04.85690,  -97 33 08.50829,     3498.470,   33 23 04.85690,  -97 33 08.50829,     3498.470, 1271009799.00, -16.2503153405,  -0.0923894445,   0.2195402384,     0.567,    51.560,    -0.195
  33 23 06.53095,  -97 33 08.48733,     3498.239,   33 23 06.53095,  -97 33 08.48733,     3498.239, 1271009800.00, -16.0287353724,  -0.1866581905,  -0.5964777126,     0.498,    51.637,    -0.267
  33 23 08.20738,  -97 33 08.47004,     3497.966,   33 23 08.20738,  -97 33 08.47004,     3497.966, 1271009801.00, -16.2213523240,  -0.0499561902,  -0.7752118968,     0.404,    51.719,    -0.233
  33 23 09.88565,  -97 33 08.45799,     3497.737,   33 23 09.88565,  -97 33 08.45799,     3497.737, 1271009802.00, -16.7282194374,  -0.0044060454,  -1.0639998143,     0.208,    51.748,    -0.228
  33 23 11.56447,  -97 33 08.45485,     3497.572,   33 23 11.56447,  -97 33 08.45485,     3497.572, 1271009803.00, -17.0162109436,   0.1104548037,  -0.6743942432,    -0.033,    51.746,    -0.103
  33 23 13.24369,  -97 33 08.45862,     3497.482,   33 23 13.24369,  -97 33 08.45862,     3497.482, 1271009804.00, -17.1734305626,   0.0843050100,   0.3229362021,    -0.136,    51.796,    -0.105
  33 23 14.92509,  -97 33 08.46349,     3497.389,   33 23 14.92509,  -97 33 08.46349,     3497.389, 1271009805.00, -17.1165645014,   0.1192497059,   1.1705298571,    -0.087,    51.870,    -0.091
  33 23 16.60953,  -97 33 08.46469,     3497.265,   33 23 16.60953,  -97 33 08.46469,     3497.265, 1271009806.00, -16.8532388283,  -0.0108575502,   1.2447450803,     0.025,    51.983,    -0.175
  33 23 18.29793,  -97 33 08.46092,     3497.020,   33 23 18.29793,  -97 33 08.46092,     3497.020, 1271009807.00, -16.4470002924,  -0.0060676231,   1.4173658049,     0.180,    52.112,    -0.285
  33 23 19.99071,  -97 33 08.45027,     3496.752,   33 23 19.99071,  -97 33 08.45027,     3496.752, 1271009808.00, -16.1050590803,  -0.0683137579,   1.0137514157,     0.358,    52.241,    -0.254
  33 23 21.68771,  -97 33 08.43438,     3496.428,   33 23 21.68771,  -97 33 08.43438,     3496.428, 1271009809.00, -15.9348390490,  -0.2484975253,   0.0271295516,     0.429,    52.373,    -0.392
  33 23 23.38811,  -97 33 08.41913,     3496.016,   33 23 23.38811,  -97 33 08.41913,     3496.016, 1271009810.00, -15.9118347935,  -0.1791639025,  -0.9136442297,     0.331,    52.454,    -0.400
  33 23 25.09057,  -97 33 08.40984,     3495.666,   33 23 25.09057,  -97 33 08.40984,     3495.666, 1271009811.00, -16.2056532804,  -0.0184148635,  -1.0942634450,     0.148,    52.497,    -0.271
  33 23 26.79372,  -97 33 08.40872,     3495.465,   33 23 26.79372,  -97 33 08.40872,     3495.465, 1271009812.00, -16.6147451461,   0.0867114327,  -1.1779496606,    -0.093,    52.505,    -0.142
  33 23 28.49659,  -97 33 08.41677,     3495.382,   33 23 28.49659,  -97 33 08.41677,     3495.382, 1271009813.00, -16.9355900522,   0.1459438096,  -0.5660364650,    -0.297,    52.486,    -0.045
  33 23 30.19948,  -97 33 08.43068,     3495.337,   33 23 30.19948,  -97 33 08.43068,     3495.337, 1271009814.00, -17.1630027307,   0.1531057820,   0.1990168901,    -0.398,    52.505,    -0.046
  33 23 31.90326,  -97 33 08.44656,     3495.283,   33 23 31.90326,  -97 33 08.44656,     3495.283, 1271009815.00, -17.0898474794,   0.1215128892,   0.7269745800,    -0.402,    52.546,    -0.066
  33 23 33.60906,  -97 33 08.46075,     3495.212,   33 23 33.60906,  -97 33 08.46075,     3495.212, 1271009816.00, -16.9021751536,   0.1021870228,   1.2011945583,    -0.317,    52.616,    -0.078
  33 23 35.31782,  -97 33 08.47004,     3495.088,   33 23 35.31782,  -97 33 08.47004,     3495.088, 1271009817.00, -16.5974590094,   0.0278973150,   1.1335740794,    -0.176,    52.730,    -0.174
  33 23 37.03003,  -97 33 08.47406,     3494.900,   33 23 37.03003,  -97 33 08.47406,     3494.900, 1271009818.00, -16.2878841832,  -0.0150745196,   0.8922786335,    -0.042,    52.826,    -0.192
  33 23 38.74555,  -97 33 08.47382,     3494.661,   33 23 38.74555,  -97 33 08.47382,     3494.661, 1271009819.00, -16.0880078563,  -0.0873015792,   0.1260335262,     0.020,    52.926,    -0.271
  33 23 40.46366,  -97 33 08.47351,     3494.397,   33 23 40.46366,  -97 33 08.47351,     3494.397, 1271009820.00, -15.9566744705,  -0.0333289549,  -0.5837523200,    -0.028,    52.995,    -0.229
  33 23 42.18337,  -97 33 08.47682,     3494.186,   33 23 42.18337,  -97 33 08.47682,     3494.186, 1271009821.00, -16.1660389784,   0.0483118013,  -0.9212989458,    -0.155,    53.023,    -0.184
  33 23 43.90360,  -97 33 08.48638,     3494.051,   33 23 43.90360,  -97 33 08.48638,     3494.051, 1271009822.00, -16.4976726798,   0.1665645606,  -1.0126971733,    -0.343,    53.026,    -0.079
  33 23 45.62344,  -97 33 08.50326,     3494.027,   33 23 45.62344,  -97 33 08.50326,     3494.027, 1271009823.00, -16.9283134882,   0.2658180395,  -0.6433399307,    -0.521,    53.009,     0.016
  33 23 47.34259,  -97 33 08.52627,     3494.069,   33 23 47.34259,  -97 33 08.52627,     3494.069, 1271009824.00, -17.1761864896,   0.2320078000,   0.0646239097,    -0.644,    52.984,     0.031
  33 23 49.06205,  -97 33 08.55143,     3494.064,   33 23 49.06205,  -97 33 08.55143,     3494.064, 1271009825.00, -17.2650407844,   0.2448248659,   0.9083099926,    -0.633,    53.030,    -0.018
  33 23 50.78303,  -97 33 08.57410,     3494.031,   33 23 50.78303,  -97 33 08.57410,     3494.031, 1271009826.00, -17.0844330283,   0.1146373956,   1.3051863982,    -0.530,    53.079,    -0.088
  33 23 52.50658,  -97 33 08.59159,     3493.881,   33 23 52.50658,  -97 33 08.59159,     3493.881, 1271009827.00, -16.6743728639,   0.0928649994,   1.4838346387,    -0.365,    53.174,    -0.183
  33 23 54.23352,  -97 33 08.60170,     3493.660,   33 23 54.23352,  -97 33 08.60170,     3493.660, 1271009828.00, -16.2842401716,  -0.0791942264,   1.0103881534,    -0.180,    53.293,    -0.278
  33 23 55.96407,  -97 33 08.60632,     3493.345,   33 23 55.96407,  -97 33 08.60632,     3493.345, 1271009829.00, -16.0116325822,  -0.0761804684,   0.3703312709,    -0.076,    53.391,    -0.324
  33 23 57.69741,  -97 33 08.60869,     3493.039,   33 23 57.69741,  -97 33 08.60869,     3493.039, 1271009830.00, -16.0051753479,   0.0178533649,  -0.3801861450,    -0.075,    53.457,    -0.265
  33 23 59.43196,  -97 33 08.61342,     3492.804,   33 23 59.43196,  -97 33 08.61342,     3492.804, 1271009831.00, -16.1260980905,   0.1018317889,  -1.1497830554,    -0.192,    53.474,    -0.210
  33 24 01.16613,  -97 33 08.62509,     3492.612,   33 24 01.16613,  -97 33 08.62509,     3492.612, 1271009832.00, -16.4511599660,   0.1400538034,  -1.5849731487,    -0.422,    53.438,    -0.187
  33 24 02.89883,  -97 33 08.64668,     3492.463,   33 24 02.89883,  -97 33 08.64668,     3492.463, 1271009833.00, -16.9066327653,   0.3028941384,  -1.1851574697,    -0.679,    53.386,    -0.104
  33 24 04.62948,  -97 33 08.67706,     3492.397,   33 24 04.62948,  -97 33 08.67706,     3492.397, 1271009834.00, -17.2726152865,   0.3551478893,  -0.3207245850,    -0.871,    53.320,    -0.033
  33 24 06.35863,  -97 33 08.71160,     3492.403,   33 24 06.35863,  -97 33 08.71160,     3492.403, 1271009835.00, -17.5076253853,   0.4082553473,   0.5808416944,    -0.896,    53.284,     0.025
  33 24 08.08749,  -97 33 08.74502,     3492.404,   33 24 08.08749,  -97 33 08.74502,     3492.404, 1271009836.00, -17.4586546826,   0.3137173111,   1.4258570394,    -0.826,    53.305,    -0.051
  33 24 09.81734,  -97 33 08.77247,     3492.326,   33 24 09.81734,  -97 33 08.77247,     3492.326, 1271009837.00, -17.0025459002,   0.3059823809,   2.3659031643,    -0.554,    53.356,    -0.105
  33 24 11.54986,  -97 33 08.78729,     3492.117,   33 24 11.54986,  -97 33 08.78729,     3492.117, 1271009838.00, -16.5779096895,   0.1438181362,   2.1563037437,    -0.229,    53.456,    -0.286
  33 24 13.28581,  -97 33 08.79076,     3491.793,   33 24 13.28581,  -97 33 08.79076,     3491.793, 1271009839.00, -15.9183550532,   0.1850882861,   2.1835077798,     0.065,    53.564,    -0.338
  33 24 15.02547,  -97 33 08.78048,     3491.452,   33 24 15.02547,  -97 33 08.78048,     3491.452, 1271009840.00, -15.7215154027,   0.0462491532,   2.1517773771,     0.442,    53.684,    -0.349
  33 24 16.76893,  -97 33 08.75739,     3491.064,   33 24 16.76893,  -97 33 08.75739,     3491.064, 1271009841.00, -15.3595435860,   0.0071104062,   1.2529842134,     0.711,    53.786,    -0.401
  33 24 18.51510,  -97 33 08.72630,     3490.693,   33 24 18.51510,  -97 33 08.72630,     3490.693, 1271009842.00, -15.0505417175,   0.1262512502,   0.7836286468,     0.877,    53.863,    -0.302
  33 24 20.26315,  -97 33 08.69010,     3490.403,   33 24 20.26315,  -97 33 08.69010,     3490.403, 1271009843.00, -14.9769452887,   0.0686002368,  -0.1537589539,     0.961,    53.899,    -0.302
  33 24 22.01176,  -97 33 08.65445,     3490.115,   33 24 22.01176,  -97 33 08.65445,     3490.115, 1271009844.00, -14.9610858170,   0.1912246641,  -1.2168133878,     0.852,    53.894,    -0.266
  33 24 23.75906,  -97 33 08.62554,     3489.915,   33 24 23.75906,  -97 33 08.62554,     3489.915, 1271009845.00, -15.2946847636,   0.3687670961,  -1.5534948474,     0.627,    53.821,    -0.134
  33 24 25.50331,  -97 33 08.60599,     3489.852,   33 24 25.50331,  -97 33 08.60599,     3489.852, 1271009846.00, -15.7024530968,   0.4615747998,  -1.1051954798,     0.392,    53.717,    -0.018
  33 24 27.24492,  -97 33 08.59284,     3489.868,   33 24 27.24492,  -97 33 08.59284,     3489.868, 1271009847.00, -16.1595702849,   0.5549382725,   0.0246142669,     0.320,    53.662,     0.018
  33 24 28.98440,  -97 33 08.58231,     3489.963,   33 24 28.98440,  -97 33 08.58231,     3489.963, 1271009848.00, -16.0591594313,   0.5512541539,  -0.2184745369,     0.235,    53.583,     0.110
  33 24 30.72172,  -97 33 08.57322,     3490.060,   33 24 30.72172,  -97 33 08.57322,     3490.060, 1271009849.00, -15.9869381013,   0.5995373072,   0.6878243739,     0.273,    53.533,     0.108
  33 24 32.45725,  -97 33 08.55996,     3490.208,   33 24 32.45725,  -97 33 08.55996,     3490.208, 1271009850.00, -15.9175930193,   0.8334645158,   0.9612512929,     0.414,    53.469,     0.233
  33 24 34.19046,  -97 33 08.54109,     3490.474,   33 24 34.19046,  -97 33 08.54109,     3490.474, 1271009851.00, -15.6531500786,   0.7243733517,   0.8917457828,     0.547,    53.393,     0.279
  33 24 35.92229,  -97 33 08.51638,     3490.685,   33 24 35.92229,  -97 33 08.51638,     3490.685, 1271009852.00, -15.3184625121,   0.6216993148,   1.1317520736,     0.741,    53.372,     0.072
  33 24 37.65403,  -97 33 08.48219,     3490.763,   33 24 37.65403,  -97 33 08.48219,     3490.763, 1271009853.00, -15.1511588359,   0.4952704477,   1.9261580565,     1.075,    53.416,     0.054
  33 24 39.38701,  -97 33 08.43617,     3490.709,   33 24 39.38701,  -97 33 08.43617,     3490.709, 1271009854.00, -14.9738226688,   0.4727990430,  -0.7171999201,     1.201,    53.396,    -0.056
  33 24 41.11742,  -97 33 08.39387,     3490.699,   33 24 41.11742,  -97 33 08.39387,     3490.699, 1271009855.00, -14.5122421394,   0.5785498632,  -2.4964401387,     0.951,    53.271,     0.091
  33 24 42.84317,  -97 33 08.36149,     3490.852,   33 24 42.84317,  -97 33 08.36149,     3490.852, 1271009856.00, -15.2410501844,   0.6937487575,  -2.2962028485,     0.741,    53.131,     0.191
  33 24 44.56348,  -97 33 08.34132,     3491.092,   33 24 44.56348,  -97 33 08.34132,     3491.092, 1271009857.00, -16.3668836039,   0.5499019735,  -2.8768096302,     0.295,    52.923,     0.181
  33 24 46.27668,  -97 33 08.33978,     3491.287,   33 24 46.27668,  -97 33 08.33978,     3491.287, 1271009858.00, -17.2264979136,   0.7368581020,  -1.4095162831,    -0.168,    52.704,     0.267
  33 24 47.98365,  -97 33 08.35040,     3491.564,   33 24 47.98365,  -97 33 08.35040,     3491.564, 1271009859.00, -17.5816286141,   0.6286263745,   0.7372133358,    -0.336,    52.570,     0.238
  33 24 49.68895,  -97 33 08.36068,     3491.825,   33 24 49.68895,  -97 33 08.36068,     3491.825, 1271009860.00, -17.3316127507,   0.7544192584,   2.9771574584,    -0.123,    52.577,     0.233
  33 24 51.39594,  -97 33 08.35691,     3492.033,   33 24 51.39594,  -97 33 08.35691,     3492.033, 1271009861.00, -16.5778810416,   0.5239641741,   4.2160526397,     0.370,    52.680,     0.131
  33 24 53.10736,  -97 33 08.32939,     3492.074,   33 24 53.10736,  -97 33 08.32939,     3492.074, 1271009862.00, -15.6176553431,   0.5374401414,   3.9887316345,     1.035,    52.822,     0.057
  33 24 54.82370,  -97 33 08.27708,     3492.082,   33 24 54.82370,  -97 33 08.27708,     3492.082, 1271009863.00, -14.8917292759,   0.5352915497,   3.1419057428,     1.637,    52.975,    -0.053
  33 24 56.54385,  -97 33 08.20472,     3492.055,   33 24 56.54385,  -97 33 08.20472,     3492.055, 1271009864.00, -14.4551984613,   0.5199534695,   1.7370189588,     2.049,    53.055,    -0.013
  33 24 58.26573,  -97 33 08.12154,     3492.009,   33 24 58.26573,  -97 33 08.12154,     3492.009, 1271009865.00, -13.9164691649,   0.4434521447,   0.2620880842,     2.206,    53.084,    -0.049
  33 24 59.98790,  -97 33 08.03600,     3491.966,   33 24 59.98790,  -97 33 08.03600,     3491.966, 1271009866.00, -13.7912836162,   0.4394987359,  -1.1695157218,     2.166,    53.084,     0.005
  33 25 01.70914,  -97 33 07.95597,     3491.997,   33 25 01.70914,  -97 33 07.95597,     3491.997, 1271009867.00, -14.1602798955,   0.6023849075,  -2.0555433858,     1.949,    53.022,     0.086
  33 25 03.42736,  -97 33 07.88750,     3492.172,   33 25 03.42736,  -97 33 07.88750,     3492.172, 1271009868.00, -14.9428313816,   0.6109678153,  -2.3560597494,     1.581,    52.904,     0.250
  33 25 05.14091,  -97 33 07.83426,     3492.482,   33 25 05.14091,  -97 33 07.83426,     3492.482, 1271009869.00, -15.7381827449,   0.8091653758,  -1.5486877315,     1.202,    52.748,     0.367
  33 25 06.84959,  -97 33 07.79310,     3492.921,   33 25 06.84959,  -97 33 07.79310,     3492.921, 1271009870.00, -16.1962567726,   0.7920912335,  -0.2710720625,     0.971,    52.605,     0.462
  33 25 08.55480,  -97 33 07.75708,     3493.354,   33 25 08.55480,  -97 33 07.75708,     3493.354, 1271009871.00, -16.1600802174,   0.8043639894,   1.3009694288,     0.939,    52.534,     0.413
  33 25 10.25890,  -97 33 07.71649,     3493.708,   33 25 10.25890,  -97 33 07.71649,     3493.708, 1271009872.00, -15.6938988369,   0.6153738607,   2.4458307767,     1.188,    52.541,     0.257
