  31 09 03.55512,  -97 24 43.89896,      181.503,         Latitude,        Longitude,        H-Ell,      CorrTime,        Heading,          Pitch,           Roll,     VEast,    VNorth,       VUp
  31 09 03.55512,  -97 24 43.89896,      181.503,   31 09 03.55512,  -97 24 43.89896,      181.503, 1266446236.00,  32.5993275681,   3.3708253003,   0.9191961907,    -0.008,    -0.019,     0.020
  31 09 03.55509,  -97 24 43.89895,      181.505,   31 09 03.55509,  -97 24 43.89895,      181.505, 1266446237.00,  32.6102023071,   3.3357889311,   0.9268050702,    -0.004,    -0.001,     0.018
  31 09 03.55504,  -97 24 43.89894,      181.505,   31 09 03.55504,  -97 24 43.89894,      181.505, 1266446238.00,  32.6228073786,   3.3781477009,   0.9876302698,     0.007,     0.013,     0.003
  31 09 03.55509,  -97 24 43.89897,      181.502,   31 09 03.55509,  -97 24 43.89897,      181.502, 1266446239.00,  32.6917513901,   3.4495898084,   1.0078155729,     0.002,    -0.017,     0.004
  31 09 03.55511,  -97 24 43.89887,      181.507,   31 09 03.55511,  -97 24 43.89887,      181.507, 1266446240.00,  32.6481263835,   3.3162854478,   1.1114464493,     0.007,    -0.004,     0.017
  31 09 03.55509,  -97 24 43.89891,      181.506,   31 09 03.55509,  -97 24 43.89891,      181.506, 1266446241.00,  32.6425515042,   3.3545704877,   0.9279223379,     0.008,     0.001,     0.026
  31 09 03.55503,  -97 24 43.89894,      181.505,   31 09 03.55503,  -97 24 43.89894,      181.505, 1266446242.00,  32.6670225316,   3.3872405411,   0.9828804497,     0.005,    -0.012,     0.016
  31 09 03.55502,  -97 24 43.89889,      181.505,   31 09 03.55502,  -97 24 43.89889,      181.505, 1266446243.00,  32.6540163897,   3.3804452617,   1.0030256457,     0.004,    -0.009,    -0.017
  31 09 03.55506,  -97 24 43.89887,      181.507,   31 09 03.55506,  -97 24 43.89887,      181.507, 1266446244.00,  32.6771753438,   3.2999045844,   1.0721988403,    -0.001,     0.011,    -0.007
  31 09 03.55503,  -97 24 43.89885,      181.504,   31 09 03.55503,  -97 24 43.89885,      181.504, 1266446245.00,  32.6683575233,   3.3935488065,   1.0991622342,     0.004,     0.020,    -0.007
  31 09 03.55507,  -97 24 43.89885,      181.505,   31 09 03.55507,  -97 24 43.89885,      181.505, 1266446246.00,  32.6257982183,   3.3540834735,   0.8132448353,    -0.010,     0.001,    -0.014
  31 09 03.55512,  -97 24 43.89882,      181.508,   31 09 03.55512,  -97 24 43.89882,      181.508, 1266446247.00,  32.6682543909,   3.2287604150,   0.8903706841,     0.003,     0.001,    -0.010
  31 09 03.55511,  -97 24 43.89882,      181.507,   31 09 03.55511,  -97 24 43.89882,      181.507, 1266446248.00,  32.6949083875,   3.2623701193,   1.0212628924,     0.012,    -0.002,    -0.014
  31 09 03.55501,  -97 24 43.89886,      181.506,   31 09 03.55501,  -97 24 43.89886,      181.506, 1266446249.00,  32.6880844602,   3.3289191672,   1.0631690255,     0.002,     0.010,     0.022
  31 09 03.55501,  -97 24 43.89883,      181.505,   31 09 03.55501,  -97 24 43.89883,      181.505, 1266446250.00,  32.6416347717,   3.3439707685,   0.9564613657,    -0.007,     0.014,     0.008
  31 09 03.55497,  -97 24 43.89882,      181.501,   31 09 03.55497,  -97 24 43.89882,      181.501, 1266446251.00,  32.6167626738,   3.4291294855,   0.9219807656,    -0.010,    -0.006,     0.007
  31 09 03.55498,  -97 24 43.89876,      181.503,   31 09 03.55498,  -97 24 43.89876,      181.503, 1266446252.00,  32.5954028072,   3.3798894926,   0.9311137129,    -0.000,     0.005,    -0.002
  31 09 03.55504,  -97 24 43.89879,      181.504,   31 09 03.55504,  -97 24 43.89879,      181.504, 1266446253.00,  32.6976585849,   3.3462797884,   1.0436082464,     0.001,     0.003,    -0.002
  31 09 03.55507,  -97 24 43.89880,      181.502,   31 09 03.55507,  -97 24 43.89880,      181.502, 1266446254.00,  32.7031704389,   3.3452885714,   0.9225651826,     0.004,     0.009,    -0.014
  31 09 03.55513,  -97 24 43.89867,      181.504,   31 09 03.55513,  -97 24 43.89867,      181.504, 1266446255.00,  32.6257753000,   3.2843430507,   0.9138734128,    -0.005,    -0.007,     0.001
  31 09 03.55505,  -97 24 43.89869,      181.501,   31 09 03.55505,  -97 24 43.89869,      181.501, 1266446256.00,  32.6695951121,   3.3386995567,   0.9553899346,     0.001,    -0.017,     0.010
  31 09 03.55495,  -97 24 43.89865,      181.502,   31 09 03.55495,  -97 24 43.89865,      181.502, 1266446257.00,  32.5700494248,   3.3458557996,   0.9294521353,     0.013,     0.008,     0.000
  31 09 03.55501,  -97 24 43.89865,      181.501,   31 09 03.55501,  -97 24 43.89865,      181.501, 1266446258.00,  32.6533975953,   3.2949484995,   0.9728594178,     0.008,     0.008,     0.004
  31 09 03.55499,  -97 24 43.89863,      181.500,   31 09 03.55499,  -97 24 43.89863,      181.500, 1266446259.00,  32.6083172759,   3.3499352591,   0.9200384387,     0.013,     0.008,     0.013
  31 09 03.55498,  -97 24 43.89865,      181.500,   31 09 03.55498,  -97 24 43.89865,      181.500, 1266446260.00,  32.6208077559,   3.3530922566,   0.9891944446,     0.001,     0.014,     0.004
  31 09 03.55494,  -97 24 43.89867,      181.498,   31 09 03.55494,  -97 24 43.89867,      181.498, 1266446261.00,  32.6674694387,   3.4106401375,   1.1151706750,    -0.008,     0.017,     0.010
  31 09 03.55492,  -97 24 43.89864,      181.498,   31 09 03.55492,  -97 24 43.89864,      181.498, 1266446262.00,  32.6134223299,   3.4080962049,   1.0005390089,    -0.012,     0.001,    -0.001
  31 09 03.55498,  -97 24 43.89864,      181.499,   31 09 03.55498,  -97 24 43.89864,      181.499, 1266446263.00,  32.6492379217,   3.3939613361,   1.0040054036,    -0.013,    -0.002,     0.000
  31 09 03.55497,  -97 24 43.89871,      181.500,   31 09 03.55497,  -97 24 43.89871,      181.500, 1266446264.00,  32.6717494334,   3.3684532550,   1.1040151867,     0.005,    -0.006,     0.002
  31 09 03.55495,  -97 24 43.89874,      181.500,   31 09 03.55495,  -97 24 43.89874,      181.500, 1266446265.00,  32.6744136872,   3.4023494382,   0.9919904786,    -0.008,    -0.018,    -0.002
  31 09 03.55488,  -97 24 43.89870,      181.500,   31 09 03.55488,  -97 24 43.89870,      181.500, 1266446266.00,  32.5926411507,   3.4181344255,   0.8892534164,    -0.002,    -0.022,     0.014
  31 09 03.55488,  -97 24 43.89869,      181.505,   31 09 03.55488,  -97 24 43.89869,      181.505, 1266446267.00,  32.6042091685,   3.2854431297,   0.9187722020,    -0.005,    -0.005,     0.006
  31 09 03.55488,  -97 24 43.89862,      181.506,   31 09 03.55488,  -97 24 43.89862,      181.506, 1266446268.00,  32.5652652272,   3.2755710669,   0.8438235928,     0.004,     0.017,     0.008
  31 09 03.55493,  -97 24 43.89861,      181.507,   31 09 03.55493,  -97 24 43.89861,      181.507, 1266446269.00,  32.6498567161,   3.2698472185,   1.0764215393,     0.010,     0.027,     0.019
  31 09 03.55487,  -97 24 43.89861,      181.504,   31 09 03.55487,  -97 24 43.89861,      181.504, 1266446270.00,  32.6315908216,   3.3612970122,   1.0713737811,     0.001,     0.008,     0.001
  31 09 03.55486,  -97 24 43.89863,      181.505,   31 09 03.55486,  -97 24 43.89863,      181.505, 1266446271.00,  32.5924635337,   3.3462167630,   0.9034627697,    -0.011,    -0.004,    -0.001
  31 09 03.55491,  -97 24 43.89859,      181.506,   31 09 03.55491,  -97 24 43.89859,      181.506, 1266446272.00,  32.6183612261,   3.3099141571,   0.9648838453,    -0.004,    -0.002,    -0.008
  31 09 03.55490,  -97 24 43.89860,      181.504,   31 09 03.55490,  -97 24 43.89860,      181.504, 1266446273.00,  32.6350113796,   3.4050480694,   1.0816698327,    -0.013,     0.005,     0.008
  31 09 03.55492,  -97 24 43.89859,      181.504,   31 09 03.55492,  -97 24 43.89859,      181.504, 1266446274.00,  32.6167569443,   3.3834017239,   0.9844847315,    -0.007,     0.004,     0.019
  31 09 03.55494,  -97 24 43.89858,      181.504,   31 09 03.55494,  -97 24 43.89858,      181.504, 1266446275.00,  32.5889570320,   3.3778726812,   0.9577161433,     0.006,     0.014,     0.033
  31 09 03.55498,  -97 24 43.89864,      181.505,   31 09 03.55498,  -97 24 43.89864,      181.505, 1266446276.00,  32.6649140469,   3.3899449019,   1.0005103610,     0.021,     0.013,    -0.012
  31 09 03.55500,  -97 24 43.89860,      181.503,   31 09 03.55500,  -97 24 43.89860,      181.503, 1266446277.00,  32.6424025352,   3.4258006008,   1.0200539514,    -0.001,     0.022,    -0.002
  31 09 03.55500,  -97 24 43.89861,      181.503,   31 09 03.55500,  -97 24 43.89861,      181.503, 1266446278.00,  32.6493811611,   3.4595019783,   1.0191945147,     0.002,     0.010,     0.005
  31 09 03.55504,  -97 24 43.89856,      181.503,   31 09 03.55504,  -97 24 43.89856,      181.503, 1266446279.00,  32.6050514165,   3.4198303805,   0.9622711578,     0.004,     0.002,     0.003
  31 09 03.55505,  -97 24 43.89863,      181.502,   31 09 03.55505,  -97 24 43.89863,      181.502, 1266446280.00,  32.6444651832,   3.4621261250,   0.9508922160,     0.003,    -0.007,     0.011
  31 09 03.55505,  -97 24 43.89865,      181.504,   31 09 03.55505,  -97 24 43.89865,      181.504, 1266446281.00,  32.6740412646,   3.4054720582,   0.9877505909,    -0.002,    -0.000,     0.019
  31 09 03.55512,  -97 24 43.89863,      181.504,   31 09 03.55512,  -97 24 43.89863,      181.504, 1266446282.00,  32.6691424755,   3.3558882906,   0.9682757555,     0.001,    -0.002,    -0.015
  31 09 03.55511,  -97 24 43.89863,      181.503,   31 09 03.55511,  -97 24 43.89863,      181.503, 1266446283.00,  32.6553399222,   3.3920361979,   0.9757413955,    -0.011,    -0.011,     0.003
  31 09 03.55510,  -97 24 43.89863,      181.505,   31 09 03.55510,  -97 24 43.89863,      181.505, 1266446284.00,  32.5925895845,   3.3771679431,   0.9168814412,     0.002,     0.002,     0.002
  31 09 03.55510,  -97 24 43.89871,      181.503,   31 09 03.55510,  -97 24 43.89871,      181.503, 1266446285.00,  32.6568468012,   3.4297425504,   0.9415644631,     0.010,    -0.006,     0.000
  31 09 03.55508,  -97 24 43.89874,      181.505,   31 09 03.55508,  -97 24 43.89874,      181.505, 1266446286.00,  32.6671428528,   3.3647634068,   0.9408711841,     0.014,     0.006,     0.013
  31 09 03.55511,  -97 24 43.89876,      181.506,   31 09 03.55511,  -97 24 43.89876,      181.506, 1266446287.00,  32.6658766160,   3.3588332937,   0.9353020343,     0.013,     0.012,     0.010
  31 09 03.55505,  -97 24 43.89879,      181.505,   31 09 03.55505,  -97 24 43.89879,      181.505, 1266446288.00,  32.6354239092,   3.4161863690,   0.9290052282,     0.009,     0.007,    -0.003
  31 09 03.55515,  -97 24 43.89872,      181.508,   31 09 03.55515,  -97 24 43.89872,      181.508, 1266446289.00,  32.6354983937,   3.2895397779,   0.9846337005,    -0.004,     0.012,    -0.016
  31 09 03.55510,  -97 24 43.89879,      181.507,   31 09 03.55510,  -97 24 43.89879,      181.507, 1266446290.00,  32.6700019122,   3.3235906597,   1.1081232941,    -0.000,    -0.001,     0.001
  31 09 03.55510,  -97 24 43.89880,      181.509,   31 09 03.55510,  -97 24 43.89880,      181.509, 1266446291.00,  32.6700420192,   3.2619862376,   0.9543872585,    -0.004,     0.005,    -0.019
  31 09 03.55517,  -97 24 43.89876,      181.511,   31 09 03.55517,  -97 24 43.89876,      181.511, 1266446292.00,  32.6773415015,   3.1923145697,   0.9146640946,     0.008,     0.025,     0.012
  31 09 03.55497,  -97 24 43.89888,      181.506,   31 09 03.55497,  -97 24 43.89888,      181.506, 1266446293.00,  32.6171694739,   3.4154243351,   0.7929965068,     0.015,     0.026,     0.033
  31 09 03.55498,  -97 24 43.89889,      181.509,   31 09 03.55498,  -97 24 43.89889,      181.509, 1266446294.00,  32.6144135469,   3.3638753223,   0.8742075447,     0.003,     0.012,     0.008
  31 09 03.55494,  -97 24 43.89892,      181.505,   31 09 03.55494,  -97 24 43.89892,      181.505, 1266446295.00,  32.6313387201,   3.4479282308,   0.9864041401,     0.003,    -0.009,     0.002
  31 09 03.55498,  -97 24 43.89891,      181.507,   31 09 03.55498,  -97 24 43.89891,      181.507, 1266446296.00,  32.6971830300,   3.4034036805,   1.1703064036,    -0.007,    -0.003,    -0.019
  31 09 03.55501,  -97 24 43.89894,      181.509,   31 09 03.55501,  -97 24 43.89894,      181.509, 1266446297.00,  32.6603418437,   3.3877103665,   1.0030657528,     0.013,     0.010,     0.001
  31 09 03.55504,  -97 24 43.89892,      181.510,   31 09 03.55504,  -97 24 43.89892,      181.510, 1266446298.00,  32.6083230055,   3.3258137359,   0.9669923300,     0.006,    -0.007,    -0.003
  31 09 03.55507,  -97 24 43.89891,      181.511,   31 09 03.55507,  -97 24 43.89891,      181.511, 1266446299.00,  32.6685924360,   3.3026261340,   1.0087036575,    -0.012,    -0.016,    -0.014
  31 09 03.55499,  -97 24 43.89898,      181.509,   31 09 03.55499,  -97 24 43.89898,      181.509, 1266446300.00,  32.6960485735,   3.4429434980,   1.0199622782,    -0.016,    -0.008,     0.007
  31 09 03.55501,  -97 24 43.89901,      181.511,   31 09 03.55501,  -97 24 43.89901,      181.511, 1266446301.00,  32.6693487403,   3.3838887380,   0.9254242420,    -0.008,    -0.006,     0.013
  31 09 03.55500,  -97 24 43.89890,      181.511,   31 09 03.55500,  -97 24 43.89890,      181.511, 1266446302.00,  32.6304563651,   3.4045725144,   0.9811615763,    -0.003,    -0.011,    -0.024
  31 09 03.55501,  -97 24 43.89890,      181.508,   31 09 03.55501,  -97 24 43.89890,      181.508, 1266446303.00,  32.5897878208,   3.4885566681,   0.9372386317,     0.002,     0.010,    -0.033
  31 09 03.55498,  -97 24 43.89894,      181.510,   31 09 03.55498,  -97 24 43.89894,      181.510, 1266446304.00,  32.6257237338,   3.4215091469,   0.9258138533,     0.001,     0.003,    -0.000
  31 09 03.55503,  -97 24 43.89894,      181.509,   31 09 03.55503,  -97 24 43.89894,      181.509, 1266446305.00,  32.6387699827,   3.4375519651,   0.8940433435,    -0.005,    -0.001,    -0.021
  31 09 03.55500,  -97 24 43.89897,      181.510,   31 09 03.55500,  -97 24 43.89897,      181.510, 1266446306.00,  32.6593334380,   3.4143127970,   0.9186862583,    -0.000,     0.005,    -0.010
  31 09 03.55501,  -97 24 43.89899,      181.509,   31 09 03.55501,  -97 24 43.89899,      181.509, 1266446307.00,  32.6534720798,   3.4692365312,   0.8918947518,    -0.000,     0.012,    -0.015
  31 09 03.55500,  -97 24 43.89899,      181.510,   31 09 03.55500,  -97 24 43.89899,      181.510, 1266446308.00,  32.6632467398,   3.4547808060,   0.9588620589,    -0.008,    -0.004,    -0.005
  31 09 03.55507,  -97 24 43.89896,      181.513,   31 09 03.55507,  -97 24 43.89896,      181.513, 1266446309.00,  32.6793697721,   3.3249600288,   0.9465377367,    -0.009,     0.002,    -0.004
  31 09 03.55503,  -97 24 43.89896,      181.509,   31 09 03.55503,  -97 24 43.89896,      181.509, 1266446310.00,  32.6268008944,   3.4565684344,   0.9119597338,    -0.009,    -0.008,    -0.011
  31 09 03.55501,  -97 24 43.89898,      181.509,   31 09 03.55501,  -97 24 43.89898,      181.509, 1266446311.00,  32.6449693861,   3.4326875535,   0.9385507050,     0.005,    -0.010,     0.010
  31 09 03.55503,  -97 24 43.89904,      181.510,   31 09 03.55503,  -97 24 43.89904,      181.510, 1266446312.00,  32.6962548383,   3.3978689082,   0.9925347885,     0.010,    -0.002,     0.008
  31 09 03.55507,  -97 24 43.89897,      181.507,   31 09 03.55507,  -97 24 43.89897,      181.507, 1266446313.00,  32.6499942260,   3.4331115422,   0.9685393160,     0.000,     0.010,    -0.024
  31 09 03.55508,  -97 24 43.89898,      181.508,   31 09 03.55508,  -97 24 43.89898,      181.508, 1266446314.00,  32.6725744927,   3.3899620907,   0.9272691661,    -0.008,    -0.003,    -0.004
  31 09 03.55506,  -97 24 43.89899,      181.509,   31 09 03.55506,  -97 24 43.89899,      181.509, 1266446315.00,  32.6501833020,   3.3412606781,   0.9146698241,     0.012,     0.013,    -0.008
  31 09 03.55509,  -97 24 43.89893,      181.510,   31 09 03.55509,  -97 24 43.89893,      181.510, 1266446316.00,  32.6586172408,   3.2623300122,   0.9625003409,     0.019,     0.023,    -0.001
  31 09 03.55504,  -97 24 43.89893,      181.507,   31 09 03.55504,  -97 24 43.89893,      181.507, 1266446317.00,  32.6374636390,   3.3698971087,   0.9577619799,     0.013,     0.007,    -0.006
  31 09 03.55498,  -97 24 43.89895,      181.506,   31 09 03.55498,  -97 24 43.89895,      181.506, 1266446318.00,  32.5536742910,   3.3941446826,   0.9006380877,     0.001,     0.011,     0.013
  31 09 03.55503,  -97 24 43.89889,      181.506,   31 09 03.55503,  -97 24 43.89889,      181.506, 1266446319.00,  32.5816346314,   3.3698684608,   0.9776493450,     0.007,     0.009,     0.010
  31 09 03.55498,  -97 24 43.89889,      181.503,   31 09 03.55498,  -97 24 43.89889,      181.503, 1266446320.00,  32.5965200749,   3.4323323196,   0.9344655160,     0.006,    -0.008,     0.009
  31 09 03.55498,  -97 24 43.89893,      181.503,   31 09 03.55498,  -97 24 43.89893,      181.503, 1266446321.00,  32.6504354035,   3.4643205533,   1.0007223554,     0.015,     0.003,    -0.008
  31 09 03.55510,  -97 24 43.89900,      181.504,   31 09 03.55510,  -97 24 43.89900,      181.504, 1266446322.00,  32.7617840214,   3.3990663900,   0.9660412201,    -0.006,    -0.015,    -0.008
  31 09 03.55510,  -97 24 43.89897,      181.506,   31 09 03.55510,  -97 24 43.89897,      181.506, 1266446323.00,  32.7015203205,   3.3687053565,   0.8937855125,    -0.004,    -0.023,    -0.003
  31 09 03.55505,  -97 24 43.89889,      181.509,   31 09 03.55505,  -97 24 43.89889,      181.509, 1266446324.00,  32.6268925677,   3.3010103930,   0.9171507314,     0.008,    -0.005,     0.019
  31 09 03.55508,  -97 24 43.89889,      181.508,   31 09 03.55508,  -97 24 43.89889,      181.508, 1266446325.00,  32.6500916288,   3.3179069184,   0.9215854247,     0.009,     0.019,     0.013
  31 09 03.55503,  -97 24 43.89881,      181.506,   31 09 03.55503,  -97 24 43.89881,      181.506, 1266446326.00,  32.5603950859,   3.4029281256,   0.8792724916,     0.019,     0.021,     0.017
  31 09 03.55501,  -97 24 43.89882,      181.506,   31 09 03.55501,  -97 24 43.89882,      181.506, 1266446327.00,  32.5659470470,   3.4368586862,   0.9369693415,     0.015,     0.015,     0.022
  31 09 03.55502,  -97 24 43.89887,      181.506,   31 09 03.55502,  -97 24 43.89887,      181.506, 1266446328.00,  32.6166366231,   3.4868836313,   0.9995191440,     0.004,     0.015,     0.009
  31 09 03.55506,  -97 24 43.89885,      181.507,   31 09 03.55506,  -97 24 43.89885,      181.507, 1266446329.00,  32.6025991571,   3.4777506840,   0.9465778438,     0.001,    -0.000,     0.015
  31 09 03.55509,  -97 24 43.89891,      181.509,   31 09 03.55509,  -97 24 43.89891,      181.509, 1266446330.00,  32.6303818806,   3.4383541060,   0.9636290677,    -0.017,     0.001,     0.018
  31 09 03.55515,  -97 24 43.89888,      181.512,   31 09 03.55515,  -97 24 43.89888,      181.512, 1266446331.00,  32.6087985605,   3.3659379703,   0.9167611201,    -0.005,    -0.000,    -0.004
  31 09 03.55526,  -97 24 43.89885,      181.514,   31 09 03.55526,  -97 24 43.89885,      181.514, 1266446332.00,  32.6199655079,   3.3219348117,   0.9641791072,     0.004,    -0.005,    -0.035
  31 09 03.55525,  -97 24 43.89890,      181.514,   31 09 03.55525,  -97 24 43.89890,      181.514, 1266446333.00,  32.6594079225,   3.3321735675,   1.0141983227,     0.013,    -0.013,    -0.018
  31 09 03.55522,  -97 24 43.89896,      181.514,   31 09 03.55522,  -97 24 43.89896,      181.514, 1266446334.00,  32.6480289807,   3.3815797181,   0.9315606199,    -0.002,     0.005,     0.010
  31 09 03.55524,  -97 24 43.89895,      181.516,   31 09 03.55524,  -97 24 43.89895,      181.516, 1266446335.00,  32.5988520132,   3.3482679519,   0.8564057460,     0.001,    -0.003,     0.008
  31 09 03.55526,  -97 24 43.89895,      181.515,   31 09 03.55526,  -97 24 43.89895,      181.515, 1266446336.00,  32.5903607786,   3.3667401112,   0.8816388073,     0.004,     0.007,     0.006
  31 09 03.55529,  -97 24 43.89894,      181.517,   31 09 03.55529,  -97 24 43.89894,      181.517, 1266446337.00,  32.6244345787,   3.3404241597,   0.9141484326,     0.015,     0.013,    -0.002
  31 09 03.55536,  -97 24 43.89892,      181.517,   31 09 03.55536,  -97 24 43.89892,      181.517, 1266446338.00,  32.6704889263,   3.3179814029,   0.8542456951,     0.009,    -0.003,    -0.002
  31 09 03.55535,  -97 24 43.89887,      181.521,   31 09 03.55535,  -97 24 43.89887,      181.521, 1266446339.00,  32.6361171882,   3.2444021628,   0.9076396320,     0.001,    -0.007,    -0.008
  31 09 03.55524,  -97 24 43.89894,      181.519,   31 09 03.55524,  -97 24 43.89894,      181.519, 1266446340.00,  32.6550935503,   3.3401090329,   0.8983118791,    -0.011,     0.002,     0.011
  31 09 03.55529,  -97 24 43.89890,      181.521,   31 09 03.55529,  -97 24 43.89890,      181.521, 1266446341.00,  32.6795531186,   3.2758288979,   1.0130810550,    -0.011,     0.000,     0.006
  31 09 03.55525,  -97 24 43.89893,      181.518,   31 09 03.55525,  -97 24 43.89893,      181.518, 1266446342.00,  32.7085848901,   3.3406533428,   1.0152009989,    -0.005,     0.011,    -0.001
  31 09 03.55513,  -97 24 43.89895,      181.516,   31 09 03.55513,  -97 24 43.89895,      181.516, 1266446343.00,  32.6496733696,   3.4292498067,   0.9369005866,     0.007,     0.017,     0.007
  31 09 03.55514,  -97 24 43.89887,      181.513,   31 09 03.55514,  -97 24 43.89887,      181.513, 1266446344.00,  32.6662662273,   3.4904073217,   1.0607282253,    -0.012,    -0.008,    -0.020
  31 09 03.55510,  -97 24 43.89884,      181.514,   31 09 03.55510,  -97 24 43.89884,      181.514, 1266446345.00,  32.6799885665,   3.4497445070,   1.1016488710,    -0.011,    -0.029,     0.002
  31 09 03.55510,  -97 24 43.89883,      181.513,   31 09 03.55510,  -97 24 43.89883,      181.513, 1266446346.00,  32.6612585762,   3.4588831838,   1.0656900398,    -0.002,    -0.006,    -0.013
  31 09 03.55507,  -97 24 43.89881,      181.515,   31 09 03.55507,  -97 24 43.89881,      181.515, 1266446347.00,  32.5900972180,   3.4211309947,   1.0469944269,     0.001,     0.001,    -0.002
  31 09 03.55507,  -97 24 43.89885,      181.511,   31 09 03.55507,  -97 24 43.89885,      181.511, 1266446348.00,  32.6391424053,   3.4939940375,   1.0887000248,     0.016,     0.018,     0.001
  31 09 03.55515,  -97 24 43.89876,      181.519,   31 09 03.55515,  -97 24 43.89876,      181.519, 1266446349.00,  32.6812949103,   3.2516443493,   1.1662842399,    -0.009,     0.016,     0.002
  31 09 03.55505,  -97 24 43.89877,      181.515,   31 09 03.55505,  -97 24 43.89877,      181.515, 1266446350.00,  32.6110674734,   3.3627695137,   1.1441336915,    -0.006,    -0.006,     0.013
  31 09 03.55504,  -97 24 43.89879,      181.513,   31 09 03.55504,  -97 24 43.89879,      181.513, 1266446351.00,  32.6229620772,   3.4224889047,   1.0934899520,    -0.011,    -0.011,     0.021
  31 09 03.55498,  -97 24 43.89885,      181.513,   31 09 03.55498,  -97 24 43.89885,      181.513, 1266446352.00,  32.6667761598,   3.4251875359,   0.9937666478,    -0.018,    -0.015,     0.018
  31 09 03.55500,  -97 24 43.89882,      181.515,   31 09 03.55500,  -97 24 43.89882,      181.515, 1266446353.00,  32.6309834863,   3.3519979072,   0.9194712105,    -0.006,    -0.007,    -0.018
  31 09 03.55502,  -97 24 43.89881,      181.513,   31 09 03.55502,  -97 24 43.89881,      181.513, 1266446354.00,  32.6336935767,   3.3834131831,   0.9008443526,    -0.015,    -0.000,     0.002
  31 09 03.55503,  -97 24 43.89883,      181.514,   31 09 03.55503,  -97 24 43.89883,      181.514, 1266446355.00,  32.6509109584,   3.3377197989,   0.8442361224,    -0.007,     0.009,     0.007
  31 09 03.55498,  -97 24 43.89882,      181.510,   31 09 03.55498,  -97 24 43.89882,      181.510, 1266446356.00,  32.6349655430,   3.4471948448,   0.9577276025,     0.012,     0.001,    -0.015
  31 09 03.55497,  -97 24 43.89876,      181.511,   31 09 03.55497,  -97 24 43.89876,      181.511, 1266446357.00,  32.6313902863,   3.3760334867,   1.0956500029,     0.002,     0.012,     0.001
  31 09 03.55503,  -97 24 43.89873,      181.512,   31 09 03.55503,  -97 24 43.89873,      181.512, 1266446358.00,  32.6568983674,   3.3274867727,   1.0606422816,     0.002,     0.013,    -0.023
  31 09 03.55495,  -97 24 43.89879,      181.507,   31 09 03.55495,  -97 24 43.89879,      181.507, 1266446359.00,  32.6330289456,   3.4826208253,   0.9748475814,    -0.004,     0.004,    -0.021
  31 09 03.55491,  -97 24 43.89880,      181.505,   31 09 03.55491,  -97 24 43.89880,      181.505, 1266446360.00,  32.6395434758,   3.5453138672,   0.9851207146,    -0.000,     0.003,     0.013
  31 09 03.55491,  -97 24 43.89882,      181.505,   31 09 03.55491,  -97 24 43.89882,      181.505, 1266446361.00,  32.6276603311,   3.5410854387,   0.9070724038,    -0.015,     0.005,     0.024
  31 09 03.55490,  -97 24 43.89880,      181.506,   31 09 03.55490,  -97 24 43.89880,      181.506, 1266446362.00,  32.6049368249,   3.4923897557,   0.9813964890,     0.004,     0.003,     0.022
  31 09 03.55497,  -97 24 43.89880,      181.509,   31 09 03.55497,  -97 24 43.89880,      181.509, 1266446363.00,  32.6182982007,   3.4035068129,   0.9634285325,     0.004,     0.011,     0.004
  31 09 03.55499,  -97 24 43.89881,      181.505,   31 09 03.55499,  -97 24 43.89881,      181.505, 1266446364.00,  32.6250132661,   3.5102259319,   0.9832070356,    -0.002,     0.003,     0.011
  31 09 03.55500,  -97 24 43.89887,      181.505,   31 09 03.55500,  -97 24 43.89887,      181.505, 1266446365.00,  32.6570244181,   3.5133370927,   0.9421889870,    -0.007,    -0.014,     0.002
  31 09 03.55491,  -97 24 43.89886,      181.500,   31 09 03.55491,  -97 24 43.89886,      181.500, 1266446366.00,  32.6261763704,   3.6545597300,   1.0395459756,    -0.005,    -0.026,    -0.010
  31 09 03.55492,  -97 24 43.89882,      181.502,   31 09 03.55492,  -97 24 43.89882,      181.502, 1266446367.00,  32.6215067644,   3.5736523598,   1.0122731845,    -0.003,    -0.027,    -0.013
  31 09 03.55482,  -97 24 43.89892,      181.496,   31 09 03.55482,  -97 24 43.89892,      181.496, 1266446368.00,  32.6259242690,   3.8058606950,   1.0159630327,    -0.012,    -0.037,    -0.039
  31 09 03.55496,  -97 24 43.89880,      181.501,   31 09 03.55496,  -97 24 43.89880,      181.501, 1266446369.00,  32.6094173549,   3.6053655738,   0.9934572506,    -0.014,    -0.022,    -0.051
  31 09 03.55509,  -97 24 43.89876,      181.508,   31 09 03.55509,  -97 24 43.89876,      181.508, 1266446370.00,  32.6705347629,   3.3214879046,   1.0486101679,    -0.002,    -0.000,    -0.025
  31 09 03.55504,  -97 24 43.89883,      181.508,   31 09 03.55504,  -97 24 43.89883,      181.508, 1266446371.00,  32.6729411856,   3.3069290470,   1.0547923825,    -0.011,    -0.006,    -0.001
  31 09 03.55500,  -97 24 43.89887,      181.508,   31 09 03.55500,  -97 24 43.89887,      181.508, 1266446372.00,  32.6743793097,   3.3387110159,   1.0118205479,    -0.005,    -0.002,     0.012
  31 09 03.55492,  -97 24 43.89886,      181.507,   31 09 03.55492,  -97 24 43.89886,      181.507, 1266446373.00,  32.6256034126,   3.3665166577,   0.9717650684,     0.020,     0.021,    -0.012
  31 09 03.55494,  -97 24 43.89886,      181.505,   31 09 03.55494,  -97 24 43.89886,      181.505, 1266446374.00,  32.6404773970,   3.4326703647,   0.9730828714,     0.016,     0.017,    -0.010
  31 09 03.55495,  -97 24 43.89884,      181.504,   31 09 03.55495,  -97 24 43.89884,      181.504, 1266446375.00,  32.6490774935,   3.4637304068,   1.0414940321,     0.006,     0.004,     0.005
  31 09 03.55490,  -97 24 43.89884,      181.504,   31 09 03.55490,  -97 24 43.89884,      181.504, 1266446376.00,  32.5956720974,   3.4825348816,   1.0149374383,    -0.006,    -0.020,     0.020
  31 09 03.55500,  -97 24 43.89875,      181.506,   31 09 03.55500,  -97 24 43.89875,      181.506, 1266446377.00,  32.6130441777,   3.4039537200,   1.0014442822,    -0.005,    -0.010,    -0.017
  31 09 03.55502,  -97 24 43.89877,      181.507,   31 09 03.55502,  -97 24 43.89877,      181.507, 1266446378.00,  32.6261018859,   3.3375020749,   1.0251704645,     0.007,     0.012,     0.002
  31 09 03.55503,  -97 24 43.89876,      181.504,   31 09 03.55503,  -97 24 43.89876,      181.504, 1266446379.00,  32.6297458975,   3.4498877465,   1.0198018500,     0.005,     0.008,     0.000
  31 09 03.55507,  -97 24 43.89876,      181.506,   31 09 03.55507,  -97 24 43.89876,      181.506, 1266446380.00,  32.6291156439,   3.3308901420,   0.9535564697,     0.006,    -0.004,     0.009
  31 09 03.55506,  -97 24 43.89878,      181.506,   31 09 03.55506,  -97 24 43.89878,      181.506, 1266446381.00,  32.6458975777,   3.3903688907,   0.9455579789,     0.003,     0.014,     0.007
  31 09 03.55505,  -97 24 43.89878,      181.503,   31 09 03.55505,  -97 24 43.89878,      181.503, 1266446382.00,  32.6306798187,   3.4762552642,   0.9346488625,     0.002,     0.004,    -0.009
  31 09 03.55511,  -97 24 43.89863,      181.506,   31 09 03.55511,  -97 24 43.89863,      181.506, 1266446383.00,  32.5566536715,   3.4146966787,   0.9174257511,     0.005,     0.001,     0.001
  31 09 03.55506,  -97 24 43.89865,      181.506,   31 09 03.55506,  -97 24 43.89865,      181.506, 1266446384.00,  32.5370413262,   3.4002180352,   0.9108138182,    -0.003,    -0.024,     0.013
  31 09 03.55499,  -97 24 43.89869,      181.507,   31 09 03.55499,  -97 24 43.89869,      181.507, 1266446385.00,  32.5661132047,   3.3971469814,   0.9927868899,    -0.002,    -0.003,     0.002
  31 09 03.55505,  -97 24 43.89868,      181.509,   31 09 03.55505,  -97 24 43.89868,      181.509, 1266446386.00,  32.6095319465,   3.3592343641,   1.0995575751,    -0.000,     0.020,     0.001
  31 09 03.55519,  -97 24 43.89862,      181.511,   31 09 03.55519,  -97 24 43.89862,      181.511, 1266446387.00,  32.5815200399,   3.2598491050,   0.8687415273,    -0.003,     0.003,    -0.000
  31 09 03.55510,  -97 24 43.89867,      181.507,   31 09 03.55510,  -97 24 43.89867,      181.507, 1266446388.00,  32.5783745016,   3.4206153327,   0.9791046578,     0.005,    -0.009,     0.021
  31 09 03.55501,  -97 24 43.89874,      181.506,   31 09 03.55501,  -97 24 43.89874,      181.506, 1266446389.00,  32.6147515920,   3.4904302400,   1.0369733951,     0.002,    -0.006,     0.036
  31 09 03.55501,  -97 24 43.89868,      181.508,   31 09 03.55501,  -97 24 43.89868,      181.508, 1266446390.00,  32.5466211806,   3.4799966786,   0.9157355256,    -0.003,    -0.000,    -0.002
  31 09 03.55513,  -97 24 43.89868,      181.506,   31 09 03.55513,  -97 24 43.89868,      181.506, 1266446391.00,  32.6031033600,   3.4990819028,   0.9669751413,    -0.013,     0.002,    -0.029
  31 09 03.55511,  -97 24 43.89876,      181.507,   31 09 03.55511,  -97 24 43.89876,      181.507, 1266446392.00,  32.6716119236,   3.5093493064,   1.0578118701,    -0.006,    -0.010,     0.001
  31 09 03.55516,  -97 24 43.89865,      181.511,   31 09 03.55516,  -97 24 43.89865,      181.511, 1266446393.00,  32.5972018947,   3.3920247387,   1.0364118965,     0.002,    -0.023,     0.008
  31 09 03.55509,  -97 24 43.89867,      181.509,   31 09 03.55509,  -97 24 43.89867,      181.509, 1266446394.00,  32.5539149333,   3.4579779105,   0.9378516965,     0.003,    -0.007,    -0.000
  31 09 03.55512,  -97 24 43.89865,      181.512,   31 09 03.55512,  -97 24 43.89865,      181.512, 1266446395.00,  32.5831243217,   3.4213200708,   0.8953210394,     0.004,    -0.001,     0.018
  31 09 03.55513,  -97 24 43.89860,      181.514,   31 09 03.55513,  -97 24 43.89860,      181.514, 1266446396.00,  32.5851697810,   3.3597500261,   0.9845534864,     0.013,     0.013,    -0.009
  31 09 03.55517,  -97 24 43.89861,      181.515,   31 09 03.55517,  -97 24 43.89861,      181.515, 1266446397.00,  32.5824081244,   3.3784513686,   0.9644713157,     0.000,     0.001,    -0.002
  31 09 03.55515,  -97 24 43.89851,      181.516,   31 09 03.55515,  -97 24 43.89851,      181.516, 1266446398.00,  32.4671118273,   3.3626205447,   0.9105903646,     0.001,     0.004,     0.006
  31 09 03.55523,  -97 24 43.89854,      181.516,   31 09 03.55523,  -97 24 43.89854,      181.516, 1266446399.00,  32.5603148719,   3.3778039263,   0.9502218553,    -0.011,    -0.000,    -0.007
  31 09 03.55515,  -97 24 43.89871,      181.514,   31 09 03.55515,  -97 24 43.89871,      181.514, 1266446400.00,  32.6945302354,   3.4992480605,   0.9988946200,    -0.000,    -0.011,     0.014
  31 09 03.55512,  -97 24 43.89857,      181.518,   31 09 03.55512,  -97 24 43.89857,      181.518, 1266446401.00,  32.5326639287,   3.3904662935,   0.9520495907,    -0.013,    -0.014,     0.020
  31 09 03.55517,  -97 24 43.89859,      181.519,   31 09 03.55517,  -97 24 43.89859,      181.519, 1266446402.00,  32.5782026142,   3.4102906332,   0.8863542499,    -0.007,    -0.009,     0.009
  31 09 03.55520,  -97 24 43.89856,      181.521,   31 09 03.55520,  -97 24 43.89856,      181.521, 1266446403.00,  32.5752404224,   3.3472251687,   0.9484456862,    -0.005,     0.008,     0.010
  31 09 03.55516,  -97 24 43.89862,      181.520,   31 09 03.55516,  -97 24 43.89862,      181.520, 1266446404.00,  32.5880861362,   3.4486501576,   0.9038867584,    -0.002,    -0.008,    -0.009
  31 09 03.55515,  -97 24 43.89861,      181.521,   31 09 03.55515,  -97 24 43.89861,      181.521, 1266446405.00,  32.5805001750,   3.4540817975,   0.9656229609,     0.003,     0.005,    -0.004
  31 09 03.55518,  -97 24 43.89858,      181.522,   31 09 03.55518,  -97 24 43.89858,      181.522, 1266446406.00,  32.5718599714,   3.4014441649,   0.9741313841,    -0.004,    -0.006,    -0.015
  31 09 03.55515,  -97 24 43.89859,      181.520,   31 09 03.55515,  -97 24 43.89859,      181.520, 1266446407.00,  32.5591976042,   3.5195880622,   0.9849946639,    -0.006,    -0.016,    -0.001
  31 09 03.55521,  -97 24 43.89859,      181.525,   31 09 03.55521,  -97 24 43.89859,      181.525, 1266446408.00,  32.5815887948,   3.4132585546,   0.8782010605,    -0.005,    -0.019,    -0.009
  31 09 03.55524,  -97 24 43.89859,      181.526,   31 09 03.55524,  -97 24 43.89859,      181.526, 1266446409.00,  32.6155651920,   3.4049563962,   0.9680465723,     0.007,    -0.027,    -0.009
  31 09 03.55525,  -97 24 43.89853,      181.525,   31 09 03.55525,  -97 24 43.89853,      181.525, 1266446410.00,  32.6361572952,   3.4273876938,   1.0338908822,    -0.006,    -0.025,    -0.012
  31 09 03.55527,  -97 24 43.89851,      181.528,   31 09 03.55527,  -97 24 43.89851,      181.528, 1266446411.00,  32.6063176532,   3.3626033560,   0.9977601636,     0.002,    -0.003,    -0.003
  31 09 03.55531,  -97 24 43.89841,      181.532,   31 09 03.55531,  -97 24 43.89841,      181.532, 1266446412.00,  32.5384393432,   3.2915852372,   0.9500213201,     0.018,     0.007,    -0.026
  31 09 03.55530,  -97 24 43.89841,      181.527,   31 09 03.55530,  -97 24 43.89841,      181.527, 1266446413.00,  32.5158819948,   3.4543338990,   0.9206285852,     0.011,     0.016,     0.003
  31 09 03.55531,  -97 24 43.89844,      181.528,   31 09 03.55531,  -97 24 43.89844,      181.528, 1266446414.00,  32.5746961125,   3.4484324337,   0.9763200829,    -0.004,    -0.005,    -0.001
  31 09 03.55526,  -97 24 43.89850,      181.528,   31 09 03.55526,  -97 24 43.89850,      181.528, 1266446415.00,  32.5980097652,   3.4740149992,   0.9833961117,    -0.000,    -0.014,     0.017
  31 09 03.55526,  -97 24 43.89845,      181.530,   31 09 03.55526,  -97 24 43.89845,      181.530, 1266446416.00,  32.6086553210,   3.4149258618,   0.9837799934,     0.002,    -0.011,    -0.019
  31 09 03.55539,  -97 24 43.89836,      181.536,   31 09 03.55539,  -97 24 43.89836,      181.536, 1266446417.00,  32.5973852412,   3.2738808414,   0.9248627433,    -0.003,     0.000,     0.003
  31 09 03.55540,  -97 24 43.89834,      181.537,   31 09 03.55540,  -97 24 43.89834,      181.537, 1266446418.00,  32.6217817841,   3.2478857462,   1.0263278393,     0.006,     0.005,     0.010
  31 09 03.55537,  -97 24 43.89837,      181.536,   31 09 03.55537,  -97 24 43.89837,      181.536, 1266446419.00,  32.6361171882,   3.3060524216,   1.0366353500,     0.017,     0.004,    -0.003
  31 09 03.55530,  -97 24 43.89840,      181.534,   31 09 03.55530,  -97 24 43.89840,      181.534, 1266446420.00,  32.5774577691,   3.3864154819,   0.9263180561,    -0.008,    -0.014,     0.006
  31 09 03.55529,  -97 24 43.89831,      181.535,   31 09 03.55529,  -97 24 43.89831,      181.535, 1266446421.00,  32.4842203471,   3.3607125952,   0.9006839244,     0.000,    -0.003,    -0.011
  31 09 03.55535,  -97 24 43.89828,      181.535,   31 09 03.55535,  -97 24 43.89828,      181.535, 1266446422.00,  32.5559317447,   3.3408195006,   1.0773554605,     0.007,     0.013,     0.000
  31 09 03.55537,  -97 24 43.89828,      181.537,   31 09 03.55537,  -97 24 43.89828,      181.537, 1266446423.00,  32.5652423089,   3.2769232473,   1.0544027712,     0.014,     0.014,     0.001
  31 09 03.55543,  -97 24 43.89820,      181.539,   31 09 03.55543,  -97 24 43.89820,      181.539, 1266446424.00,  32.5025206191,   3.1890372511,   0.9694732373,     0.001,     0.020,    -0.007
  31 09 03.55548,  -97 24 43.89828,      181.537,   31 09 03.55548,  -97 24 43.89828,      181.537, 1266446425.00,  32.5879142488,   3.2810657321,   0.9461710437,     0.002,     0.007,    -0.004
  31 09 03.55542,  -97 24 43.89833,      181.534,   31 09 03.55542,  -97 24 43.89833,      181.534, 1266446426.00,  32.5658725625,   3.3959494996,   0.9444292520,     0.007,    -0.001,    -0.002
  31 09 03.55548,  -97 24 43.89831,      181.537,   31 09 03.55548,  -97 24 43.89831,      181.537, 1266446427.00,  32.5542701671,   3.2758632753,   0.9811501171,     0.015,    -0.001,     0.008
  31 09 03.55547,  -97 24 43.89835,      181.534,   31 09 03.55547,  -97 24 43.89835,      181.534, 1266446428.00,  32.6005193203,   3.3542439017,   1.0096948745,     0.018,     0.005,    -0.021
  31 09 03.55543,  -97 24 43.89835,      181.531,   31 09 03.55543,  -97 24 43.89835,      181.531, 1266446429.00,  32.5708802136,   3.4392651089,   0.9790187141,    -0.006,    -0.017,    -0.003
  31 09 03.55549,  -97 24 43.89835,      181.535,   31 09 03.55549,  -97 24 43.89835,      181.535, 1266446430.00,  32.5442663240,   3.3321391900,   0.9090433786,    -0.001,    -0.000,     0.003
  31 09 03.55545,  -97 24 43.89845,      181.530,   31 09 03.55545,  -97 24 43.89845,      181.530, 1266446431.00,  32.5450856537,   3.4451780334,   0.6404751417,     0.013,     0.003,     0.008
  31 09 03.55540,  -97 24 43.89844,      181.529,   31 09 03.55540,  -97 24 43.89844,      181.529, 1266446432.00,  32.5423297267,   3.4544885976,   0.8579871095,    -0.001,     0.006,     0.012
  31 09 03.55551,  -97 24 43.89837,      181.531,   31 09 03.55551,  -97 24 43.89837,      181.531, 1266446433.00,  32.6278207593,   3.3742286696,   0.7007617609,    -0.007,    -0.016,    -0.016
  31 09 03.55550,  -97 24 43.89834,      181.533,   31 09 03.55550,  -97 24 43.89834,      181.533, 1266446434.00,  32.5545967531,   3.2870474115,   0.7895816783,    -0.000,    -0.016,    -0.017
  31 09 03.55543,  -97 24 43.89832,      181.532,   31 09 03.55543,  -97 24 43.89832,      181.532, 1266446435.00,  32.5111092564,   3.2678533254,   0.9108481957,     0.006,     0.004,     0.012
  31 09 03.55530,  -97 24 43.89850,      181.522,   31 09 03.55530,  -97 24 43.89850,      181.522, 1266446436.00,  32.6276374128,   3.5922276515,   0.9565988756,    -0.006,     0.015,    -0.005
  31 09 03.55529,  -97 24 43.89847,      181.520,   31 09 03.55529,  -97 24 43.89847,      181.520, 1266446437.00,  32.6847154683,   3.6192311524,   1.1093436942,     0.002,    -0.016,    -0.017
  31 09 03.55538,  -97 24 43.89831,      181.526,   31 09 03.55538,  -97 24 43.89831,      181.526, 1266446438.00,  32.5650876103,   3.4287398742,   0.9846623484,    -0.001,    -0.011,    -0.015
  31 09 03.55537,  -97 24 43.89833,      181.526,   31 09 03.55537,  -97 24 43.89833,      181.526, 1266446439.00,  32.5142662539,   3.4454931602,   0.8819653932,    -0.001,    -0.022,    -0.018
  31 09 03.55542,  -97 24 43.89827,      181.527,   31 09 03.55542,  -97 24 43.89827,      181.527, 1266446440.00,  32.5246196012,   3.3378401200,   0.9797635593,    -0.001,    -0.008,    -0.036
  31 09 03.55547,  -97 24 43.89828,      181.529,   31 09 03.55547,  -97 24 43.89828,      181.529, 1266446441.00,  32.5689378867,   3.2543315214,   0.9928098082,    -0.004,    -0.003,    -0.010
  31 09 03.55543,  -97 24 43.89826,      181.531,   31 09 03.55543,  -97 24 43.89826,      181.531, 1266446442.00,  32.4804445552,   3.1811189743,   0.8522919090,     0.011,     0.019,    -0.009
  31 09 03.55532,  -97 24 43.89833,      181.527,   31 09 03.55532,  -97 24 43.89833,      181.527, 1266446443.00,  32.4610499339,   3.3012223874,   0.8922327969,    -0.007,     0.022,     0.015
  31 09 03.55535,  -97 24 43.89838,      181.525,   31 09 03.55535,  -97 24 43.89838,      181.525, 1266446444.00,  32.5405707462,   3.3807947659,   0.9365167049,     0.011,     0.015,     0.002
  31 09 03.55536,  -97 24 43.89842,      181.523,   31 09 03.55536,  -97 24 43.89842,      181.523, 1266446445.00,  32.5460482228,   3.4502028733,   0.9394445192,     0.008,     0.013,     0.010
  31 09 03.55550,  -97 24 43.89835,      181.525,   31 09 03.55550,  -97 24 43.89835,      181.525, 1266446446.00,  32.5148850483,   3.3586098401,   0.8883825205,    -0.012,    -0.019,    -0.002
  31 09 03.55546,  -97 24 43.89843,      181.523,   31 09 03.55546,  -97 24 43.89843,      181.523, 1266446447.00,  32.5586991309,   3.4469083659,   0.9834419483,    -0.010,    -0.020,     0.002
  31 09 03.55547,  -97 24 43.89840,      181.523,   31 09 03.55547,  -97 24 43.89840,      181.523, 1266446448.00,  32.5106566198,   3.4638679167,   0.9870687711,    -0.013,    -0.013,     0.006
  31 09 03.55551,  -97 24 43.89846,      181.524,   31 09 03.55551,  -97 24 43.89846,      181.524, 1266446449.00,  32.5615008945,   3.4351856494,   0.9658865215,    -0.007,    -0.018,    -0.019
  31 09 03.55551,  -97 24 43.89843,      181.526,   31 09 03.55551,  -97 24 43.89843,      181.526, 1266446450.00,  32.4975416158,   3.4186042508,   0.8846754836,     0.004,    -0.011,    -0.023
  31 09 03.55547,  -97 24 43.89831,      181.526,   31 09 03.55547,  -97 24 43.89831,      181.526, 1266446451.00,  32.4666935681,   3.4125423574,   0.9080120546,    -0.006,     0.005,     0.008
  31 09 03.55544,  -97 24 43.89836,      181.525,   31 09 03.55544,  -97 24 43.89836,      181.525, 1266446452.00,  32.5152803892,   3.4415168331,   0.9153287256,    -0.003,     0.007,     0.014
  31 09 03.55542,  -97 24 43.89837,      181.525,   31 09 03.55542,  -97 24 43.89837,      181.525, 1266446453.00,  32.5182654993,   3.4492804112,   0.9678231188,     0.010,     0.002,     0.002
  31 09 03.55545,  -97 24 43.89838,      181.526,   31 09 03.55545,  -97 24 43.89838,      181.526, 1266446454.00,  32.5835884175,   3.4080217204,   1.1549797826,    -0.001,     0.009,    -0.010
  31 09 03.55546,  -97 24 43.89843,      181.525,   31 09 03.55546,  -97 24 43.89843,      181.525, 1266446455.00,  32.5519382289,   3.4526723213,   0.9519808358,     0.004,    -0.003,    -0.006
  31 09 03.55546,  -97 24 43.89839,      181.527,   31 09 03.55546,  -97 24 43.89839,      181.527, 1266446456.00,  32.4835156090,   3.3485773491,   0.7763979194,    -0.008,    -0.031,    -0.009
  31 09 03.55536,  -97 24 43.89841,      181.525,   31 09 03.55536,  -97 24 43.89841,      181.525, 1266446457.00,  32.4627229706,   3.4521394706,   0.7874560049,    -0.005,    -0.028,    -0.010
  31 09 03.55542,  -97 24 43.89842,      181.525,   31 09 03.55542,  -97 24 43.89842,      181.525, 1266446458.00,  32.5085710534,   3.4320000041,   0.9175116948,    -0.009,    -0.021,    -0.020
  31 09 03.55550,  -97 24 43.89849,      181.528,   31 09 03.55550,  -97 24 43.89849,      181.528, 1266446459.00,  32.6400705969,   3.3477293716,   1.0016047104,    -0.017,     0.001,    -0.022
  31 09 03.55556,  -97 24 43.89849,      181.529,   31 09 03.55556,  -97 24 43.89849,      181.529, 1266446460.00,  32.6064895406,   3.2925821838,   0.9216942867,     0.002,     0.005,    -0.024
  31 09 03.55554,  -97 24 43.89850,      181.530,   31 09 03.55554,  -97 24 43.89850,      181.530, 1266446461.00,  32.5299652975,   3.2483326533,   0.7931512054,     0.010,     0.028,    -0.007
  31 09 03.55553,  -97 24 43.89849,      181.527,   31 09 03.55553,  -97 24 43.89849,      181.527, 1266446462.00,  32.5479733610,   3.3347003113,   0.7614780985,     0.003,     0.018,     0.006
  31 09 03.55547,  -97 24 43.89855,      181.526,   31 09 03.55547,  -97 24 43.89855,      181.526, 1266446463.00,  32.5426849605,   3.3855388565,   0.8398300769,    -0.005,     0.011,     0.013
  31 09 03.55546,  -97 24 43.89850,      181.526,   31 09 03.55546,  -97 24 43.89850,      181.526, 1266446464.00,  32.4656622441,   3.3682298015,   0.7020967526,    -0.008,     0.006,     0.007
  31 09 03.55545,  -97 24 43.89850,      181.526,   31 09 03.55545,  -97 24 43.89850,      181.526, 1266446465.00,  32.5353682895,   3.3788066024,   0.9835164328,     0.000,    -0.000,    -0.001
  31 09 03.55542,  -97 24 43.89860,      181.522,   31 09 03.55542,  -97 24 43.89860,      181.522, 1266446466.00,  32.5440772479,   3.4638564575,   0.8162757820,    -0.005,    -0.006,     0.005
  31 09 03.55548,  -97 24 43.89850,      181.528,   31 09 03.55548,  -97 24 43.89850,      181.528, 1266446467.00,  32.5231470997,   3.2851451916,   0.8777828013,    -0.016,    -0.001,     0.005
  31 09 03.55546,  -97 24 43.89855,      181.527,   31 09 03.55546,  -97 24 43.89855,      181.527, 1266446468.00,  32.5454867241,   3.3106074360,   0.8278495295,    -0.006,    -0.013,    -0.008
  31 09 03.55543,  -97 24 43.89853,      181.526,   31 09 03.55543,  -97 24 43.89853,      181.526, 1266446469.00,  32.5359698951,   3.3495571070,   0.9420743955,     0.002,     0.006,    -0.017
  31 09 03.55539,  -97 24 43.89852,      181.524,   31 09 03.55539,  -97 24 43.89852,      181.524, 1266446470.00,  32.5009449851,   3.3889995216,   0.7503569877,     0.008,     0.003,     0.003
  31 09 03.55542,  -97 24 43.89849,      181.524,   31 09 03.55542,  -97 24 43.89849,      181.524, 1266446471.00,  32.5290772129,   3.3474944589,   0.8637625240,     0.007,    -0.011,    -0.007
  31 09 03.55540,  -97 24 43.89856,      181.525,   31 09 03.55540,  -97 24 43.89856,      181.525, 1266446472.00,  32.5554046236,   3.3329413309,   0.8793355169,     0.002,    -0.018,     0.008
  31 09 03.55540,  -97 24 43.89852,      181.527,   31 09 03.55540,  -97 24 43.89852,      181.527, 1266446473.00,  32.5160481526,   3.2594251162,   0.8566922249,     0.008,     0.002,    -0.010
  31 09 03.55544,  -97 24 43.89851,      181.526,   31 09 03.55544,  -97 24 43.89851,      181.526, 1266446474.00,  32.4786168199,   3.2416748837,   0.8027654372,     0.005,     0.009,    -0.008
  31 09 03.55537,  -97 24 43.89859,      181.522,   31 09 03.55537,  -97 24 43.89859,      181.522, 1266446475.00,  32.5466097214,   3.3633367419,   0.9083329109,    -0.001,     0.008,    -0.008
  31 09 03.55537,  -97 24 43.89854,      181.523,   31 09 03.55537,  -97 24 43.89854,      181.523, 1266446476.00,  32.4944018071,   3.3316865533,   0.8088846264,     0.010,     0.008,    -0.009
  31 09 03.55528,  -97 24 43.89859,      181.519,   31 09 03.55528,  -97 24 43.89859,      181.519, 1266446477.00,  32.4831431864,   3.4307796040,   0.8379679641,     0.003,     0.002,    -0.007
  31 09 03.55534,  -97 24 43.89860,      181.519,   31 09 03.55534,  -97 24 43.89860,      181.519, 1266446478.00,  32.5373335347,   3.3986366717,   0.8215756416,    -0.012,     0.001,    -0.010
  31 09 03.55532,  -97 24 43.89861,      181.520,   31 09 03.55532,  -97 24 43.89861,      181.520, 1266446479.00,  32.5648928046,   3.3443260023,   0.9093756941,    -0.002,    -0.017,     0.004
  31 09 03.55537,  -97 24 43.89859,      181.521,   31 09 03.55537,  -97 24 43.89859,      181.521, 1266446480.00,  32.5278167057,   3.3217113581,   0.7679983582,     0.003,     0.008,    -0.013
  31 09 03.55533,  -97 24 43.89861,      181.519,   31 09 03.55533,  -97 24 43.89861,      181.519, 1266446481.00,  32.5351906725,   3.3808234138,   0.7734357276,     0.014,     0.002,     0.003
  31 09 03.55532,  -97 24 43.89864,      181.518,   31 09 03.55532,  -97 24 43.89864,      181.518, 1266446482.00,  32.5432006225,   3.4161061549,   0.7609738956,     0.005,    -0.004,     0.011
  31 09 03.55527,  -97 24 43.89864,      181.519,   31 09 03.55527,  -97 24 43.89864,      181.519, 1266446483.00,  32.5694306304,   3.4034036805,   0.8817476692,     0.016,     0.002,    -0.008
  31 09 03.55529,  -97 24 43.89860,      181.521,   31 09 03.55529,  -97 24 43.89860,      181.521, 1266446484.00,  32.5865964459,   3.3724696892,   1.0423190913,     0.004,     0.014,     0.009
  31 09 03.55529,  -97 24 43.89865,      181.517,   31 09 03.55529,  -97 24 43.89865,      181.517, 1266446485.00,  32.4811435637,   3.4719752695,   0.5561529430,     0.006,    -0.010,    -0.001
  31 09 03.55531,  -97 24 43.89864,      181.521,   31 09 03.55531,  -97 24 43.89864,      181.521, 1266446486.00,  32.5325779850,   3.3574581950,   0.8710849247,     0.005,    -0.012,    -0.002
  31 09 03.55528,  -97 24 43.89864,      181.521,   31 09 03.55528,  -97 24 43.89864,      181.521, 1266446487.00,  32.5793313411,   3.3786289855,   0.9380293135,    -0.001,    -0.017,     0.001
  31 09 03.55536,  -97 24 43.89858,      181.523,   31 09 03.55536,  -97 24 43.89858,      181.523, 1266446488.00,  32.5107253747,   3.3165776563,   0.8108842491,    -0.004,     0.000,    -0.016
  31 09 03.55534,  -97 24 43.89857,      181.523,   31 09 03.55534,  -97 24 43.89857,      181.523, 1266446489.00,  32.4386243658,   3.3101949064,   0.5930227771,    -0.005,    -0.003,    -0.006
  31 09 03.55531,  -97 24 43.89862,      181.521,   31 09 03.55531,  -97 24 43.89862,      181.521, 1266446490.00,  32.5066688335,   3.3614574404,   0.7256968842,    -0.001,     0.008,     0.010
  31 09 03.55529,  -97 24 43.89863,      181.521,   31 09 03.55529,  -97 24 43.89863,      181.521, 1266446491.00,  32.5763003943,   3.3785143939,   0.9713697276,     0.009,    -0.002,     0.003
  31 09 03.55532,  -97 24 43.89863,      181.522,   31 09 03.55532,  -97 24 43.89863,      181.522, 1266446492.00,  32.5361245937,   3.3692553960,   0.8666158539,    -0.004,    -0.005,     0.005
  31 09 03.55530,  -97 24 43.89860,      181.523,   31 09 03.55530,  -97 24 43.89860,      181.523, 1266446493.00,  32.4759926731,   3.3750651880,   0.6788805027,    -0.003,    -0.007,     0.000
  31 09 03.55534,  -97 24 43.89856,      181.523,   31 09 03.55534,  -97 24 43.89856,      181.523, 1266446494.00,  32.5063365180,   3.3535277045,   0.9296813184,    -0.009,     0.003,    -0.013
  31 09 03.55533,  -97 24 43.89855,      181.522,   31 09 03.55533,  -97 24 43.89855,      181.522, 1266446495.00,  32.5330592695,   3.3920476570,   0.8771754660,    -0.011,    -0.005,     0.009
  31 09 03.55536,  -97 24 43.89852,      181.526,   31 09 03.55536,  -97 24 43.89852,      181.526, 1266446496.00,  32.4913021054,   3.2878438228,   0.8262681659,     0.002,    -0.001,     0.013
  31 09 03.55535,  -97 24 43.89857,      181.523,   31 09 03.55535,  -97 24 43.89857,      181.523, 1266446497.00,  32.4525128627,   3.3672156662,   0.6823927340,     0.004,     0.009,     0.009
  31 09 03.55534,  -97 24 43.89858,      181.522,   31 09 03.55534,  -97 24 43.89858,      181.522, 1266446498.00,  32.5178185922,   3.3947921249,   0.8258613659,    -0.006,     0.004,    -0.003
  31 09 03.55532,  -97 24 43.89857,      181.523,   31 09 03.55532,  -97 24 43.89857,      181.523, 1266446499.00,  32.4645392468,   3.3231494822,   0.7869919091,    -0.004,    -0.017,     0.006
  31 09 03.55533,  -97 24 43.89858,      181.524,   31 09 03.55533,  -97 24 43.89858,      181.524, 1266446500.00,  32.4437294197,   3.3085333288,   0.7512966384,     0.008,     0.005,    -0.011
  31 09 03.55537,  -97 24 43.89859,      181.522,   31 09 03.55537,  -97 24 43.89859,      181.522, 1266446501.00,  32.4289528382,   3.3493393830,   0.6831203904,    -0.006,     0.004,    -0.009
  31 09 03.55539,  -97 24 43.89862,      181.522,   31 09 03.55539,  -97 24 43.89862,      181.522, 1266446502.00,  32.5098888563,   3.3450994953,   0.8771410886,    -0.010,    -0.001,     0.005
  31 09 03.55536,  -97 24 43.89866,      181.523,   31 09 03.55536,  -97 24 43.89866,      181.523, 1266446503.00,  32.4679769936,   3.3296640123,   0.7488214608,    -0.009,    -0.010,    -0.001
  31 09 03.55546,  -97 24 43.89864,      181.524,   31 09 03.55546,  -97 24 43.89864,      181.524, 1266446504.00,  32.5081069576,   3.2424598359,   0.8232372192,     0.010,     0.006,     0.008
  31 09 03.55543,  -97 24 43.89872,      181.521,   31 09 03.55543,  -97 24 43.89872,      181.521, 1266446505.00,  32.5187066768,   3.3352045142,   0.8279182844,    -0.001,    -0.001,     0.000
  31 09 03.55542,  -97 24 43.89872,      181.522,   31 09 03.55542,  -97 24 43.89872,      181.522, 1266446506.00,  32.4772646395,   3.3185715494,   0.8134396409,     0.000,    -0.005,     0.004
  31 09 03.55541,  -97 24 43.89875,      181.523,   31 09 03.55541,  -97 24 43.89875,      181.523, 1266446507.00,  32.4495850484,   3.2804182898,   0.8504297962,    -0.001,     0.012,     0.011
  31 09 03.55543,  -97 24 43.89879,      181.520,   31 09 03.55543,  -97 24 43.89879,      181.520, 1266446508.00,  32.4652611736,   3.3701033735,   0.7574043685,    -0.012,    -0.000,    -0.002
  31 09 03.55610,  -97 24 43.89831,      181.517,   31 09 03.55610,  -97 24 43.89831,      181.517, 1266446509.00,  32.4291075368,   3.4825291521,   0.6865695963,     0.031,     0.055,     0.018
  31 09 03.55836,  -97 24 43.89696,      181.522,   31 09 03.55836,  -97 24 43.89696,      181.522, 1266446510.00,  32.7741026140,   3.3293660743,   0.7978494593,     0.021,     0.048,     0.020
  31 09 03.56001,  -97 24 43.89597,      181.520,   31 09 03.56001,  -97 24 43.89597,      181.520, 1266446511.00,  33.0079324197,   3.4181000480,   0.9080063250,     0.076,     0.093,     0.002
  31 09 03.56680,  -97 24 43.89105,      181.511,   31 09 03.56680,  -97 24 43.89105,      181.511, 1266446512.00,  33.2858570574,   3.7507192368,   0.6515103088,     0.220,     0.351,    -0.008
  31 09 03.58245,  -97 24 43.88017,      181.506,   31 09 03.58245,  -97 24 43.88017,      181.506, 1266446513.00,  35.2445132801,   3.7581275811,   0.8850880132,     0.404,     0.622,    -0.007
  31 09 03.60567,  -97 24 43.86226,      181.515,   31 09 03.60567,  -97 24 43.86226,      181.515, 1266446514.00,  38.3822593493,   2.7304189135,   0.8939115632,     0.529,     0.774,     0.002
  31 09 03.63448,  -97 24 43.83637,      181.496,   31 09 03.63448,  -97 24 43.83637,      181.496, 1266446515.00,  44.3694276662,   3.1465409714,   0.3765535925,     0.909,     1.018,    -0.016
  31 09 03.67167,  -97 24 43.79382,      181.474,   31 09 03.67167,  -97 24 43.79382,      181.474, 1266446516.00,  50.8080809960,   3.5092805515,   0.7548432472,     1.378,     1.224,    -0.046
  31 09 03.71063,  -97 24 43.73714,      181.464,   31 09 03.71063,  -97 24 43.73714,      181.464, 1266446517.00,  56.6352050119,   3.4308483589,   0.6304025437,     1.617,     1.142,    -0.019
  31 09 03.74822,  -97 24 43.67039,      181.449,   31 09 03.74822,  -97 24 43.67039,      181.449, 1266446518.00,  60.1045504051,   3.6919910628,   0.5818615593,     1.990,     1.225,     0.000
  31 09 03.79013,  -97 24 43.58546,      181.434,   31 09 03.79013,  -97 24 43.58546,      181.434, 1266446519.00,  62.7944325546,   3.6770540531,   0.4995103354,     2.480,     1.341,     0.000
  31 09 03.83572,  -97 24 43.48333,      181.419,   31 09 03.83572,  -97 24 43.48333,      181.419, 1266446520.00,  64.3297875583,   3.4663201760,   0.5504176355,     2.916,     1.443,    -0.037
  31 09 03.88575,  -97 24 43.36545,      181.388,   31 09 03.88575,  -97 24 43.36545,      181.388, 1266446521.00,  64.8107627090,   3.2608460515,   0.2590284896,     3.350,     1.635,    -0.099
  31 09 03.94167,  -97 24 43.23168,      181.338,   31 09 03.94167,  -97 24 43.23168,      181.338, 1266446522.00,  65.0761682188,   3.3593947923,   0.4561087824,     3.722,     1.805,    -0.039
  31 09 04.00097,  -97 24 43.08701,      181.295,   31 09 04.00097,  -97 24 43.08701,      181.295, 1266446523.00,  66.8054923544,   3.2776394445,   0.4819434494,     3.966,     1.836,    -0.025
  31 09 04.05881,  -97 24 42.93166,      181.253,   31 09 04.05881,  -97 24 42.93166,      181.253, 1266446524.00,  67.8320837542,   3.0348886859,   0.5711988147,     4.232,     1.771,    -0.059
  31 09 04.11921,  -97 24 42.76724,      181.189,   31 09 04.11921,  -97 24 42.76724,      181.189, 1266446525.00,  66.7412523264,   3.3763486135,   0.5815292437,     4.530,     1.987,    -0.041
  31 09 04.18662,  -97 24 42.59317,      181.147,   31 09 04.18662,  -97 24 42.59317,      181.147, 1266446526.00,  64.3932311749,   3.0567355666,   0.5775070800,     4.653,     2.212,    -0.060
  31 09 04.26402,  -97 24 42.41866,      181.103,   31 09 04.26402,  -97 24 42.41866,      181.103, 1266446527.00,  58.9662666127,   3.3472079800,   0.6222092472,     4.558,     2.642,    -0.038
  31 09 04.35880,  -97 24 42.24902,      181.080,   31 09 04.35880,  -97 24 42.24902,      181.080, 1266446528.00,  53.0368524416,   3.4016733480,   1.1296034818,     4.442,     3.241,    -0.041
  31 09 04.47421,  -97 24 42.07976,      181.026,   31 09 04.47421,  -97 24 42.07976,      181.026, 1266446529.00,  49.5428297562,   3.0719246777,   0.7668180651,     4.516,     3.854,    -0.045
  31 09 04.60552,  -97 24 41.90918,      180.953,   31 09 04.60552,  -97 24 41.90918,      180.953, 1266446530.00,  45.0334456437,   2.9949707163,   0.7947382985,     4.431,     4.262,    -0.041
  31 09 04.75404,  -97 24 41.74914,      180.875,   31 09 04.75404,  -97 24 41.74914,      180.875, 1266446531.00,  37.6741178920,   3.9921292742,   0.8595856617,     4.022,     4.949,    -0.046
  31 09 04.92705,  -97 24 41.60430,      180.827,   31 09 04.92705,  -97 24 41.60430,      180.827, 1266446532.00,  31.8009796355,   4.0882773218,   1.2563073686,     3.649,     5.702,    -0.013
  31 09 05.12193,  -97 24 41.47302,      180.812,   31 09 05.12193,  -97 24 41.47302,      180.812, 1266446533.00,  27.1347082196,   4.2710909655,   1.2008565132,     3.289,     6.257,    -0.028
  31 09 05.33137,  -97 24 41.35589,      180.811,   31 09 05.33137,  -97 24 41.35589,      180.811, 1266446534.00,  22.1394329785,   4.2488659326,   1.3558415968,     2.847,     6.679,    -0.019
  31 09 05.55649,  -97 24 41.25665,      180.829,   31 09 05.55649,  -97 24 41.25665,      180.829, 1266446535.00,  17.7089566136,   4.2588182095,   1.0834402723,     2.409,     7.184,     0.015
  31 09 05.79588,  -97 24 41.17146,      180.859,   31 09 05.79588,  -97 24 41.17146,      180.859, 1266446536.00,  15.9466415682,   4.3442290280,   1.1188605232,     2.163,     7.536,     0.058
  31 09 06.04476,  -97 24 41.09020,      180.901,   31 09 06.04476,  -97 24 41.09020,      180.901, 1266446537.00,  15.7312037076,   4.3686370301,   0.9126816606,     2.174,     7.767,     0.042
  31 09 06.30077,  -97 24 41.00836,      180.939,   31 09 06.30077,  -97 24 41.00836,      180.939, 1266446538.00,  15.1336889414,   4.2897120938,   0.8284969718,     2.153,     8.016,     0.034
  31 09 06.56529,  -97 24 40.92688,      180.971,   31 09 06.56529,  -97 24 40.92688,      180.971, 1266446539.00,  14.8862914950,   4.1697633794,   0.8266176702,     2.174,     8.272,     0.030
  31 09 06.83693,  -97 24 40.84521,      180.988,   31 09 06.83693,  -97 24 40.84521,      180.988, 1266446540.00,  14.0415912768,   4.2358655202,   0.9543013148,     2.135,     8.499,     0.009
  31 09 07.11734,  -97 24 40.76611,      180.999,   31 09 07.11734,  -97 24 40.76611,      180.999, 1266446541.00,  13.4404611469,   4.0199979414,   1.0387151868,     2.056,     8.774,    -0.002
